[
  {
    "type": "Feature",
    "geometry": {
      "type": "Point",
      "coordinates": [
        89.9,
        47.6
      ]
    },
    "properties": {
      "id": 180797,
      "name": "hello",
      "radius": 200,
      "poiType": 2,
      "chainId": null,
      "address": "205 Richmond St W",
      "city": "Toronto",
      "region": "ON",
      "postalCode": "M5V 1V3",
      "country": "CAN",
      "addressLabel": "1234 honey street, toronto, on, canada",
      "polygon": null,
      "polygon_json": null,
      "lat": 47.6,
      "lon": 89.9,
      "center_lon": null,
      "center_lat": null,
      "locationType": 2,
      "category": 3,
      "deprecated": false
    }
  },
  {
    "type": "Feature",
    "geometry": {
      "type": "Point",
      "coordinates": [
        -79.43598,
        43.65993
      ]
    },
    "properties": {
      "id": 180798,
      "name": "try again",
      "radius": 200,
      "poiType": 2,
      "chainId": null,
      "address": "1140 Bloor St W",
      "city": "Toronto",
      "region": "ON",
      "postalCode": "M6H 4E6",
      "country": "CAN",
      "addressLabel": "1140 Bloor St W, Toronto, ON M6H 4E6, Canada",
      "polygon": null,
      "polygon_json": null,
      "lat": 43.65993,
      "lon": -79.43598,
      "center_lon": null,
      "center_lat": null,
      "locationType": 2,
      "category": null,
      "deprecated": false
    }
  },
  {
    "type": "Feature",
    "geometry": {
      "type": "Point",
      "coordinates": [
        -79.40929,
        43.65639
      ]
    },
    "properties": {
      "id": 180799,
      "name": "change name",
      "radius": 200,
      "poiType": 2,
      "chainId": null,
      "address": "474 College St",
      "city": "Toronto",
      "region": "ON",
      "postalCode": "M6G 1A4",
      "country": "CAN",
      "addressLabel": "474 College St, Toronto, ON M6G 1A4, Canada",
      "polygon": null,
      "polygon_json": null,
      "lat": 43.65639,
      "lon": -79.40929,
      "center_lon": null,
      "center_lat": null,
      "locationType": 2,
      "category": null,
      "deprecated": false
    }
  },
  {
    "type": "Feature",
    "geometry": {
      "type": "Point",
      "coordinates": [
        -79.37837,
        43.66606
      ]
    },
    "properties": {
      "id": 180800,
      "name": "log name",
      "radius": 200,
      "poiType": 2,
      "chainId": null,
      "address": "111 Wellesley St E",
      "city": "Toronto",
      "region": "ON",
      "postalCode": "M4Y 2Y2",
      "country": "CAN",
      "addressLabel": "111 Wellesley St E, Toronto, ON M4Y 2Y2, Canada",
      "polygon": null,
      "polygon_json": null,
      "lat": 43.66606,
      "lon": -79.37837,
      "center_lon": null,
      "center_lat": null,
      "locationType": 2,
      "category": null,
      "deprecated": false
    }
  },
  {
    "type": "Feature",
    "geometry": {
      "type": "Point",
      "coordinates": [
        -79.55209,
        43.63229
      ]
    },
    "properties": {
      "id": 180801,
      "name": "test log info",
      "radius": 200,
      "poiType": 2,
      "chainId": null,
      "address": "225 The East Mall",
      "city": "Toronto",
      "region": "ON",
      "postalCode": "M9B",
      "country": "CAN",
      "addressLabel": "225 The East Mall, Toronto, ON M9B, Canada",
      "polygon": null,
      "polygon_json": null,
      "lat": 43.63229,
      "lon": -79.55209,
      "center_lon": null,
      "center_lat": null,
      "locationType": 2,
      "category": null,
      "deprecated": false
    }
  },
  {
    "type": "Feature",
    "geometry": {
      "type": "Point",
      "coordinates": [
        -79.4188,
        43.67724
      ]
    },
    "properties": {
      "id": 180802,
      "name": "test log info 4",
      "radius": 200,
      "poiType": 2,
      "chainId": null,
      "address": "80 Wychwood Park",
      "city": "Toronto",
      "region": "ON",
      "postalCode": "M6G 2V5",
      "country": "CAN",
      "addressLabel": "80 Wychwood Park, Toronto, ON M6G 2V5, Canada",
      "polygon": null,
      "polygon_json": null,
      "lat": 43.67724,
      "lon": -79.4188,
      "center_lon": null,
      "center_lat": null,
      "locationType": 2,
      "category": null,
      "deprecated": false
    }
  },
  {
    "type": "Feature",
    "geometry": {
      "type": "Point",
      "coordinates": [
        -79.38173,
        43.65128
      ]
    },
    "properties": {
      "id": 180803,
      "name": "test on log name",
      "radius": 200,
      "poiType": 2,
      "chainId": null,
      "address": "390 Bay St",
      "city": "Toronto",
      "region": "ON",
      "postalCode": "M5H 1W2",
      "country": "CAN",
      "addressLabel": "390 Bay St, Toronto, ON M5H 1W2, Canada",
      "polygon": null,
      "polygon_json": null,
      "lat": 43.65128,
      "lon": -79.38173,
      "center_lon": null,
      "center_lat": null,
      "locationType": 2,
      "category": null,
      "deprecated": false
    }
  },
  {
    "type": "Feature",
    "geometry": {
      "type": "Point",
      "coordinates": [
        -79.38381,
        43.6682
      ]
    },
    "properties": {
      "id": 180804,
      "name": "new name",
      "radius": 200,
      "poiType": 2,
      "chainId": null,
      "address": "38 Isabella St",
      "city": "Toronto",
      "region": "ON",
      "postalCode": "M4Y 1N1",
      "country": "CAN",
      "addressLabel": "38 Isabella St, Toronto, ON M4Y 1N1, Canada",
      "polygon": null,
      "polygon_json": null,
      "lat": 43.6682,
      "lon": -79.38381,
      "center_lon": null,
      "center_lat": null,
      "locationType": 2,
      "category": null,
      "deprecated": false
    }
  },
  {
    "type": "Feature",
    "geometry": {
      "type": "Point",
      "coordinates": [
        -79.38397,
        43.64695
      ]
    },
    "properties": {
      "id": 180805,
      "name": "test on name",
      "radius": 200,
      "poiType": 2,
      "chainId": null,
      "address": "55 University Ave",
      "city": "Toronto",
      "region": "ON",
      "postalCode": "M5J 2H7",
      "country": "CAN",
      "addressLabel": "55 University Ave, Toronto, ON M5J 2H7, Canada",
      "polygon": null,
      "polygon_json": null,
      "lat": 43.64695,
      "lon": -79.38397,
      "center_lon": null,
      "center_lat": null,
      "locationType": 2,
      "category": null,
      "deprecated": false
    }
  },
  {
    "type": "Feature",
    "geometry": {
      "type": "Point",
      "coordinates": [
        -79.37217,
        43.64768
      ]
    },
    "properties": {
      "id": 180806,
      "name": "name and radius",
      "radius": 200,
      "poiType": 2,
      "chainId": null,
      "address": "115 The Esplanade",
      "city": "Toronto",
      "region": "ON",
      "postalCode": "M5E 1Y7",
      "country": "CAN",
      "addressLabel": "115 The Esplanade, Toronto, ON M5E 1Y7, Canada",
      "polygon": null,
      "polygon_json": null,
      "lat": 43.64768,
      "lon": -79.37217,
      "center_lon": null,
      "center_lat": null,
      "locationType": 2,
      "category": null,
      "deprecated": false
    }
  },
  {
    "type": "Feature",
    "geometry": {
      "type": "Point",
      "coordinates": [
        -79.279,
        43.70595
      ]
    },
    "properties": {
      "id": 180807,
      "name": "add a name",
      "radius": 200,
      "poiType": 2,
      "chainId": null,
      "address": "682 Warden Ave",
      "city": "Toronto",
      "region": "ON",
      "postalCode": "M1L 3Z9",
      "country": "CAN",
      "addressLabel": "682 Warden Ave, Scarborough, ON M1L 3Z9, Canada",
      "polygon": null,
      "polygon_json": null,
      "lat": 43.70595,
      "lon": -79.279,
      "center_lon": null,
      "center_lat": null,
      "locationType": 2,
      "category": null,
      "deprecated": false
    }
  },
  {
    "type": "Feature",
    "geometry": {
      "type": "Point",
      "coordinates": [
        -79.3297,
        43.66357
      ]
    },
    "properties": {
      "id": 180808,
      "name": null,
      "radius": 200,
      "poiType": 2,
      "chainId": null,
      "address": "1238 Queen St E",
      "city": "Toronto",
      "region": "ON",
      "postalCode": "M4L 1C3",
      "country": "CAN",
      "addressLabel": "1238 Queen St E, Toronto, ON M4L 1C3, Canada",
      "polygon": null,
      "polygon_json": null,
      "lat": 43.66357,
      "lon": -79.3297,
      "center_lon": null,
      "center_lat": null,
      "locationType": 2,
      "category": null,
      "deprecated": false
    }
  },
  {
    "type": "Feature",
    "geometry": {
      "type": "Point",
      "coordinates": [
        -79.34154,
        43.80835
      ]
    },
    "properties": {
      "id": 180809,
      "name": null,
      "radius": 200,
      "poiType": 2,
      "chainId": null,
      "address": "202 Sparks Ave",
      "city": "Toronto",
      "region": "ON",
      "postalCode": "M2H 2S4",
      "country": "CAN",
      "addressLabel": "202 Sparks Ave, North York, ON M2H 2S4, Canada",
      "polygon": null,
      "polygon_json": null,
      "lat": 43.80835,
      "lon": -79.34154,
      "center_lon": null,
      "center_lat": null,
      "locationType": 2,
      "category": null,
      "deprecated": false
    }
  },
  {
    "type": "Feature",
    "geometry": {
      "type": "Point",
      "coordinates": [
        -79.37174,
        43.71872
      ]
    },
    "properties": {
      "id": 180810,
      "name": null,
      "radius": 200,
      "poiType": 2,
      "chainId": null,
      "address": "347 Rumsey Rd",
      "city": "Toronto",
      "region": "ON",
      "postalCode": "M4G 1R7",
      "country": "CAN",
      "addressLabel": "347 Rumsey Rd, Toronto, ON M4G 1R7, Canada",
      "polygon": null,
      "polygon_json": null,
      "lat": 43.71872,
      "lon": -79.37174,
      "center_lon": null,
      "center_lat": null,
      "locationType": 2,
      "category": null,
      "deprecated": false
    }
  },
  {
    "type": "Feature",
    "geometry": {
      "type": "Point",
      "coordinates": [
        -79.38798,
        43.66716
      ]
    },
    "properties": {
      "id": 180811,
      "name": null,
      "radius": 200,
      "poiType": 2,
      "chainId": null,
      "address": "1075 Bay St",
      "city": "Toronto",
      "region": "ON",
      "postalCode": "M5S 2B1",
      "country": "CAN",
      "addressLabel": "1075 Bay St, Toronto, ON M5S 2B1, Canada",
      "polygon": null,
      "polygon_json": null,
      "lat": 43.66716,
      "lon": -79.38798,
      "center_lon": null,
      "center_lat": null,
      "locationType": 2,
      "category": null,
      "deprecated": false
    }
  },
  {
    "type": "Feature",
    "geometry": {
      "type": "Point",
      "coordinates": [
        -79.38743,
        43.65512
      ]
    },
    "properties": {
      "id": 180812,
      "name": null,
      "radius": 200,
      "poiType": 2,
      "chainId": null,
      "address": "210 Dundas St W",
      "city": "Toronto",
      "region": "ON",
      "postalCode": "M5G 2E8",
      "country": "CAN",
      "addressLabel": "210 Dundas St W, Toronto, ON M5G 2E8, Canada",
      "polygon": null,
      "polygon_json": null,
      "lat": 43.65512,
      "lon": -79.38743,
      "center_lon": null,
      "center_lat": null,
      "locationType": 2,
      "category": null,
      "deprecated": false
    }
  },
  {
    "type": "Feature",
    "geometry": {
      "type": "Point",
      "coordinates": [
        -79.39316,
        43.69952
      ]
    },
    "properties": {
      "id": 180813,
      "name": null,
      "radius": 200,
      "poiType": 2,
      "chainId": null,
      "address": "84 Davisville Ave",
      "city": "Toronto",
      "region": "ON",
      "postalCode": "M4S 1G1",
      "country": "CAN",
      "addressLabel": "84 Davisville Ave, Toronto, ON M4S 1G1, Canada",
      "polygon": null,
      "polygon_json": null,
      "lat": 43.69952,
      "lon": -79.39316,
      "center_lon": null,
      "center_lat": null,
      "locationType": 2,
      "category": null,
      "deprecated": false
    }
  },
  {
    "type": "Feature",
    "geometry": {
      "type": "Point",
      "coordinates": [
        -79.4006,
        43.66713
      ]
    },
    "properties": {
      "id": 180814,
      "name": null,
      "radius": 200,
      "poiType": 2,
      "chainId": null,
      "address": "339 Bloor St W",
      "city": "Toronto",
      "region": "ON",
      "postalCode": "M5S 1W7",
      "country": "CAN",
      "addressLabel": "339 Bloor St W, Toronto, ON M5S 1W7, Canada",
      "polygon": null,
      "polygon_json": null,
      "lat": 43.66713,
      "lon": -79.4006,
      "center_lon": null,
      "center_lat": null,
      "locationType": 2,
      "category": null,
      "deprecated": false
    }
  },
  {
    "type": "Feature",
    "geometry": {
      "type": "Point",
      "coordinates": [
        -79.37657,
        43.6505
      ]
    },
    "properties": {
      "id": 180815,
      "name": null,
      "radius": 200,
      "poiType": 2,
      "chainId": null,
      "address": "36 Toronto St",
      "city": "Toronto",
      "region": "ON",
      "postalCode": "M5C 2C5",
      "country": "CAN",
      "addressLabel": "36 Toronto St, Toronto, ON M5C 2C5, Canada",
      "polygon": null,
      "polygon_json": null,
      "lat": 43.6505,
      "lon": -79.37657,
      "center_lon": null,
      "center_lat": null,
      "locationType": 2,
      "category": null,
      "deprecated": false
    }
  },
  {
    "type": "Feature",
    "geometry": {
      "type": "Point",
      "coordinates": [
        -79.38248,
        43.67066
      ]
    },
    "properties": {
      "id": 180816,
      "name": "a name",
      "radius": 200,
      "poiType": 2,
      "chainId": null,
      "address": "175 Bloor St E",
      "city": "Toronto",
      "region": "ON",
      "postalCode": "M4W 3R8",
      "country": "CAN",
      "addressLabel": "175 Bloor St E, Toronto, ON M4W 3R8, Canada",
      "polygon": null,
      "polygon_json": null,
      "lat": 43.67066,
      "lon": -79.38248,
      "center_lon": null,
      "center_lat": null,
      "locationType": 2,
      "category": null,
      "deprecated": false
    }
  },
  {
    "type": "Feature",
    "geometry": {
      "type": "Point",
      "coordinates": [
        -79.40554,
        43.69672
      ]
    },
    "properties": {
      "id": 180817,
      "name": null,
      "radius": 200,
      "poiType": 2,
      "chainId": null,
      "address": "1 Hillholm Rd",
      "city": "Toronto",
      "region": "ON",
      "postalCode": "M5P 1M1",
      "country": "CAN",
      "addressLabel": "1 Hillholm Rd, Toronto, ON M5P 1M1, Canada",
      "polygon": null,
      "polygon_json": null,
      "lat": 43.69672,
      "lon": -79.40554,
      "center_lon": null,
      "center_lat": null,
      "locationType": 2,
      "category": null,
      "deprecated": false
    }
  },
  {
    "type": "Feature",
    "geometry": {
      "type": "Point",
      "coordinates": [
        -79.37846,
        43.65148
      ]
    },
    "properties": {
      "id": 180818,
      "name": null,
      "radius": 200,
      "poiType": 2,
      "chainId": null,
      "address": "151 Yonge St",
      "city": "Toronto",
      "region": "ON",
      "postalCode": "M5C 2W7",
      "country": "CAN",
      "addressLabel": "151 Yonge St, Toronto, ON M5C 2W7, Canada",
      "polygon": null,
      "polygon_json": null,
      "lat": 43.65148,
      "lon": -79.37846,
      "center_lon": null,
      "center_lat": null,
      "locationType": 2,
      "category": null,
      "deprecated": false
    }
  },
  {
    "type": "Feature",
    "geometry": {
      "type": "Point",
      "coordinates": [
        -79.3926,
        43.67059
      ]
    },
    "properties": {
      "id": 180819,
      "name": null,
      "radius": 200,
      "poiType": 2,
      "chainId": null,
      "address": "113 Yorkville Ave",
      "city": "Toronto",
      "region": "ON",
      "postalCode": "M5R 1C1",
      "country": "CAN",
      "addressLabel": "113 Yorkville Ave, Toronto, ON M5R 1C1, Canada",
      "polygon": null,
      "polygon_json": null,
      "lat": 43.67059,
      "lon": -79.3926,
      "center_lon": null,
      "center_lat": null,
      "locationType": 2,
      "category": null,
      "deprecated": false
    }
  },
  {
    "type": "Feature",
    "geometry": {
      "type": "Point",
      "coordinates": [
        -79.38902,
        43.6551
      ]
    },
    "properties": {
      "id": 180820,
      "name": null,
      "radius": 200,
      "poiType": 2,
      "chainId": null,
      "address": "480 University Ave",
      "city": "Toronto",
      "region": "ON",
      "postalCode": "M5G 1V2",
      "country": "CAN",
      "addressLabel": "480 University Ave, Toronto, ON M5G 1V2, Canada",
      "polygon": null,
      "polygon_json": null,
      "lat": 43.6551,
      "lon": -79.38902,
      "center_lon": null,
      "center_lat": null,
      "locationType": 2,
      "category": null,
      "deprecated": false
    }
  },
  {
    "type": "Feature",
    "geometry": {
      "type": "Point",
      "coordinates": [
        -79.37764,
        43.65365
      ]
    },
    "properties": {
      "id": 180821,
      "name": null,
      "radius": 200,
      "poiType": 2,
      "chainId": null,
      "address": "30 Bond St",
      "city": "Toronto",
      "region": "ON",
      "postalCode": "M5B 1W8",
      "country": "CAN",
      "addressLabel": "30 Bond St, Toronto, ON M5B 1W8, Canada",
      "polygon": null,
      "polygon_json": null,
      "lat": 43.65365,
      "lon": -79.37764,
      "center_lon": null,
      "center_lat": null,
      "locationType": 2,
      "category": null,
      "deprecated": false
    }
  },
  {
    "type": "Feature",
    "geometry": {
      "type": "Point",
      "coordinates": [
        -79.40367,
        43.66595
      ]
    },
    "properties": {
      "id": 180822,
      "name": null,
      "radius": 200,
      "poiType": 2,
      "chainId": null,
      "address": "742 Spadina Ave",
      "city": "Toronto",
      "region": "ON",
      "postalCode": "M5S 2J2",
      "country": "CAN",
      "addressLabel": "742 Spadina Ave, Toronto, ON M5S 2J2, Canada",
      "polygon": null,
      "polygon_json": null,
      "lat": 43.66595,
      "lon": -79.40367,
      "center_lon": null,
      "center_lat": null,
      "locationType": 2,
      "category": null,
      "deprecated": false
    }
  },
  {
    "type": "Feature",
    "geometry": {
      "type": "Point",
      "coordinates": [
        -79.45745,
        43.71391
      ]
    },
    "properties": {
      "id": 180823,
      "name": null,
      "radius": 200,
      "poiType": 2,
      "chainId": null,
      "address": "960 Lawrence Ave W",
      "city": "Toronto",
      "region": "ON",
      "postalCode": "M6A 3B5",
      "country": "CAN",
      "addressLabel": "960 Lawrence Ave W, North York, ON M6A 3B5, Canada",
      "polygon": null,
      "polygon_json": null,
      "lat": 43.71391,
      "lon": -79.45745,
      "center_lon": null,
      "center_lat": null,
      "locationType": 2,
      "category": null,
      "deprecated": false
    }
  },
  {
    "type": "Feature",
    "geometry": {
      "type": "Point",
      "coordinates": [
        -79.38062,
        43.65236
      ]
    },
    "properties": {
      "id": 180824,
      "name": null,
      "radius": 200,
      "poiType": 2,
      "chainId": null,
      "address": "20 Queen St W",
      "city": "Toronto",
      "region": "ON",
      "postalCode": "M5H 3R3",
      "country": "CAN",
      "addressLabel": "20 Queen St W, Toronto, ON M5H 3R3, Canada",
      "polygon": null,
      "polygon_json": null,
      "lat": 43.65236,
      "lon": -79.38062,
      "center_lon": null,
      "center_lat": null,
      "locationType": 2,
      "category": null,
      "deprecated": false
    }
  },
  {
    "type": "Feature",
    "geometry": {
      "type": "Point",
      "coordinates": [
        -79.45609,
        43.70547
      ]
    },
    "properties": {
      "id": 180825,
      "name": null,
      "radius": 200,
      "poiType": 2,
      "chainId": null,
      "address": "74 Tycos Dr",
      "city": "Toronto",
      "region": "ON",
      "postalCode": "M6B 1V9",
      "country": "CAN",
      "addressLabel": "74 Tycos Dr, North York, ON M6B 1V9, Canada",
      "polygon": null,
      "polygon_json": null,
      "lat": 43.70547,
      "lon": -79.45609,
      "center_lon": null,
      "center_lat": null,
      "locationType": 2,
      "category": null,
      "deprecated": false
    }
  },
  {
    "type": "Feature",
    "geometry": {
      "type": "Point",
      "coordinates": [
        -79.37433,
        43.66368
      ]
    },
    "properties": {
      "id": 180826,
      "name": null,
      "radius": 200,
      "poiType": 2,
      "chainId": null,
      "address": "13 Homewood Ave",
      "city": "Toronto",
      "region": "ON",
      "postalCode": "M4Y 2J7",
      "country": "CAN",
      "addressLabel": "13 Homewood Ave, Toronto, ON M4Y 2J7, Canada",
      "polygon": null,
      "polygon_json": null,
      "lat": 43.66368,
      "lon": -79.37433,
      "center_lon": null,
      "center_lat": null,
      "locationType": 2,
      "category": null,
      "deprecated": false
    }
  },
  {
    "type": "Feature",
    "geometry": {
      "type": "Point",
      "coordinates": [
        -79.37782,
        43.67194
      ]
    },
    "properties": {
      "id": 180827,
      "name": null,
      "radius": 200,
      "poiType": 2,
      "chainId": null,
      "address": "365 Bloor St E",
      "city": "Toronto",
      "region": "ON",
      "postalCode": "M4W 3L4",
      "country": "CAN",
      "addressLabel": "365 Bloor St E, Toronto, ON M4W 3L4, Canada",
      "polygon": null,
      "polygon_json": null,
      "lat": 43.67194,
      "lon": -79.37782,
      "center_lon": null,
      "center_lat": null,
      "locationType": 2,
      "category": null,
      "deprecated": false
    }
  },
  {
    "type": "Feature",
    "geometry": {
      "type": "Point",
      "coordinates": [
        -79.24598,
        43.73099
      ]
    },
    "properties": {
      "id": 180828,
      "name": null,
      "radius": 200,
      "poiType": 2,
      "chainId": null,
      "address": "440 Brimley Rd",
      "city": "Toronto",
      "region": "ON",
      "postalCode": "M1J 1A1",
      "country": "CAN",
      "addressLabel": "440 Brimley Rd, Scarborough, ON M1J 1A1, Canada",
      "polygon": null,
      "polygon_json": null,
      "lat": 43.73099,
      "lon": -79.24598,
      "center_lon": null,
      "center_lat": null,
      "locationType": 2,
      "category": null,
      "deprecated": false
    }
  },
  {
    "type": "Feature",
    "geometry": {
      "type": "Point",
      "coordinates": [
        -79.3982,
        43.65922
      ]
    },
    "properties": {
      "id": 180829,
      "name": null,
      "radius": 200,
      "poiType": 2,
      "chainId": null,
      "address": "215 Huron St",
      "city": "Toronto",
      "region": "ON",
      "postalCode": "M5S 1A2",
      "country": "CAN",
      "addressLabel": "215 Huron St, Toronto, ON M5S 1A2, Canada",
      "polygon": null,
      "polygon_json": null,
      "lat": 43.65922,
      "lon": -79.3982,
      "center_lon": null,
      "center_lat": null,
      "locationType": 2,
      "category": null,
      "deprecated": false
    }
  },
  {
    "type": "Feature",
    "geometry": {
      "type": "Point",
      "coordinates": [
        -79.42265,
        43.67318
      ]
    },
    "properties": {
      "id": 180830,
      "name": null,
      "radius": 200,
      "poiType": 2,
      "chainId": null,
      "address": "600 Melita Cres",
      "city": "Toronto",
      "region": "ON",
      "postalCode": "M6G 3Z4",
      "country": "CAN",
      "addressLabel": "600 Melita Cres, Toronto, ON M6G 3Z4, Canada",
      "polygon": null,
      "polygon_json": null,
      "lat": 43.67318,
      "lon": -79.42265,
      "center_lon": null,
      "center_lat": null,
      "locationType": 2,
      "category": null,
      "deprecated": false
    }
  },
  {
    "type": "Feature",
    "geometry": {
      "type": "Point",
      "coordinates": [
        -79.37782,
        43.67194
      ]
    },
    "properties": {
      "id": 180831,
      "name": null,
      "radius": 200,
      "poiType": 2,
      "chainId": null,
      "address": "365 Bloor St E",
      "city": "Toronto",
      "region": "ON",
      "postalCode": "M4W 3L4",
      "country": "CAN",
      "addressLabel": "365 Bloor St E, Toronto, ON M4W 3L4, Canada",
      "polygon": null,
      "polygon_json": null,
      "lat": 43.67194,
      "lon": -79.37782,
      "center_lon": null,
      "center_lat": null,
      "locationType": 2,
      "category": null,
      "deprecated": false
    }
  },
  {
    "type": "Feature",
    "geometry": {
      "type": "Point",
      "coordinates": [
        -79.28845,
        43.68016
      ]
    },
    "properties": {
      "id": 180832,
      "name": null,
      "radius": 200,
      "poiType": 2,
      "chainId": null,
      "address": "931 Kingston Rd",
      "city": "Toronto",
      "region": "ON",
      "postalCode": "M4E 1S6",
      "country": "CAN",
      "addressLabel": "931 Kingston Rd, Toronto, ON M4E 1S6, Canada",
      "polygon": null,
      "polygon_json": null,
      "lat": 43.68016,
      "lon": -79.28845,
      "center_lon": null,
      "center_lat": null,
      "locationType": 2,
      "category": null,
      "deprecated": false
    }
  },
  {
    "type": "Feature",
    "geometry": {
      "type": "Point",
      "coordinates": [
        -79.46926,
        43.7555
      ]
    },
    "properties": {
      "id": 180833,
      "name": null,
      "radius": 200,
      "poiType": 2,
      "chainId": null,
      "address": "3 Whitehorse Rd",
      "city": "Toronto",
      "region": "ON",
      "postalCode": "M3J 3G8",
      "country": "CAN",
      "addressLabel": "3 Whitehorse Rd, North York, ON M3J 3G8, Canada",
      "polygon": null,
      "polygon_json": null,
      "lat": 43.7555,
      "lon": -79.46926,
      "center_lon": null,
      "center_lat": null,
      "locationType": 2,
      "category": null,
      "deprecated": false
    }
  },
  {
    "type": "Feature",
    "geometry": {
      "type": "Point",
      "coordinates": [
        -79.02473,
        43.86571
      ]
    },
    "properties": {
      "id": 180834,
      "name": null,
      "radius": 200,
      "poiType": 2,
      "chainId": null,
      "address": "157 Harwood Ave N",
      "city": "Ajax",
      "region": "ON",
      "postalCode": "L1Z 0A1",
      "country": "CAN",
      "addressLabel": "157 Harwood Ave N, Ajax, ON L1Z 0A1, Canada",
      "polygon": null,
      "polygon_json": null,
      "lat": 43.86571,
      "lon": -79.02473,
      "center_lon": null,
      "center_lat": null,
      "locationType": 2,
      "category": null,
      "deprecated": false
    }
  },
  {
    "type": "Feature",
    "geometry": {
      "type": "Point",
      "coordinates": [
        -79.38691,
        43.69896
      ]
    },
    "properties": {
      "id": 180835,
      "name": null,
      "radius": 200,
      "poiType": 2,
      "chainId": null,
      "address": "305 Balliol St",
      "city": "Toronto",
      "region": "ON",
      "postalCode": "M4S 3H5",
      "country": "CAN",
      "addressLabel": "305 Balliol St, Toronto, ON M4S 3H5, Canada",
      "polygon": null,
      "polygon_json": null,
      "lat": 43.69896,
      "lon": -79.38691,
      "center_lon": null,
      "center_lat": null,
      "locationType": 2,
      "category": null,
      "deprecated": false
    }
  },
  {
    "type": "Feature",
    "geometry": {
      "type": "Point",
      "coordinates": [
        -79.42841,
        43.64081
      ]
    },
    "properties": {
      "id": 180836,
      "name": null,
      "radius": 200,
      "poiType": 2,
      "chainId": null,
      "address": "340 Dufferin St",
      "city": "Toronto",
      "region": "ON",
      "postalCode": "M6K 1Z9",
      "country": "CAN",
      "addressLabel": "340 Dufferin St, Toronto, ON M6K 1Z9, Canada",
      "polygon": null,
      "polygon_json": null,
      "lat": 43.64081,
      "lon": -79.42841,
      "center_lon": null,
      "center_lat": null,
      "locationType": 2,
      "category": null,
      "deprecated": false
    }
  },
  {
    "type": "Feature",
    "geometry": {
      "type": "Point",
      "coordinates": [
        -79.41527,
        43.67627
      ]
    },
    "properties": {
      "id": 180837,
      "name": null,
      "radius": 200,
      "poiType": 2,
      "chainId": null,
      "address": "1243 Bathurst St",
      "city": "Toronto",
      "region": "ON",
      "postalCode": "M5R 3H3",
      "country": "CAN",
      "addressLabel": "1243 Bathurst St, Toronto, ON M5R 3H3, Canada",
      "polygon": null,
      "polygon_json": null,
      "lat": 43.67627,
      "lon": -79.41527,
      "center_lon": null,
      "center_lat": null,
      "locationType": 2,
      "category": null,
      "deprecated": false
    }
  },
  {
    "type": "Feature",
    "geometry": {
      "type": "Point",
      "coordinates": [
        -79.38201,
        43.65375
      ]
    },
    "properties": {
      "id": 180838,
      "name": null,
      "radius": 200,
      "poiType": 2,
      "chainId": null,
      "address": "483 Bay St",
      "city": "Toronto",
      "region": "ON",
      "postalCode": "M5G 2E1",
      "country": "CAN",
      "addressLabel": "483 Bay St, Toronto, ON M5G 2E1, Canada",
      "polygon": null,
      "polygon_json": null,
      "lat": 43.65375,
      "lon": -79.38201,
      "center_lon": null,
      "center_lat": null,
      "locationType": 2,
      "category": null,
      "deprecated": false
    }
  },
  {
    "type": "Feature",
    "geometry": {
      "type": "Point",
      "coordinates": [
        -79.39044,
        43.65121
      ]
    },
    "properties": {
      "id": 180839,
      "name": null,
      "radius": 200,
      "poiType": 2,
      "chainId": null,
      "address": "22 McCaul St",
      "city": "Toronto",
      "region": "ON",
      "postalCode": "M5T 3C2",
      "country": "CAN",
      "addressLabel": "22 McCaul St, Toronto, ON M5T 3C2, Canada",
      "polygon": null,
      "polygon_json": null,
      "lat": 43.65121,
      "lon": -79.39044,
      "center_lon": null,
      "center_lat": null,
      "locationType": 2,
      "category": null,
      "deprecated": false
    }
  },
  {
    "type": "Feature",
    "geometry": {
      "type": "Point",
      "coordinates": [
        -79.4853,
        43.61957
      ]
    },
    "properties": {
      "id": 180840,
      "name": null,
      "radius": 200,
      "poiType": 2,
      "chainId": null,
      "address": "2275 Lake Shore Blvd W",
      "city": "Toronto",
      "region": "ON",
      "postalCode": "M8V 3Y3",
      "country": "CAN",
      "addressLabel": "2275 Lake Shore Blvd W, Etobicoke, ON M8V 3Y3, Canada",
      "polygon": null,
      "polygon_json": null,
      "lat": 43.61957,
      "lon": -79.4853,
      "center_lon": null,
      "center_lat": null,
      "locationType": 2,
      "category": null,
      "deprecated": false
    }
  },
  {
    "type": "Feature",
    "geometry": {
      "type": "Point",
      "coordinates": [
        -79.39037,
        43.65812
      ]
    },
    "properties": {
      "id": 180841,
      "name": null,
      "radius": 200,
      "poiType": 2,
      "chainId": null,
      "address": "610 University Ave",
      "city": "Toronto",
      "region": "ON",
      "postalCode": "M5G 2M9",
      "country": "CAN",
      "addressLabel": "610 University Ave, Toronto, ON M5G 2M9, Canada",
      "polygon": null,
      "polygon_json": null,
      "lat": 43.65812,
      "lon": -79.39037,
      "center_lon": null,
      "center_lat": null,
      "locationType": 2,
      "category": null,
      "deprecated": false
    }
  },
  {
    "type": "Feature",
    "geometry": {
      "type": "Point",
      "coordinates": [
        -79.3949,
        43.70677
      ]
    },
    "properties": {
      "id": 180842,
      "name": null,
      "radius": 200,
      "poiType": 2,
      "chainId": null,
      "address": "77 Dunfield Ave",
      "city": "Toronto",
      "region": "ON",
      "postalCode": "M4S 2H3",
      "country": "CAN",
      "addressLabel": "77 Dunfield Ave, Toronto, ON M4S 2H3, Canada",
      "polygon": null,
      "polygon_json": null,
      "lat": 43.70677,
      "lon": -79.3949,
      "center_lon": null,
      "center_lat": null,
      "locationType": 2,
      "category": null,
      "deprecated": false
    }
  },
  {
    "type": "Feature",
    "geometry": {
      "type": "Point",
      "coordinates": [
        -79.5043507,
        43.7159518
      ]
    },
    "properties": {
      "id": 180843,
      "name": null,
      "radius": 200,
      "poiType": 2,
      "chainId": null,
      "address": "30 Falstaff Ave",
      "city": "Toronto",
      "region": "ON",
      "postalCode": "M6L 2C9",
      "country": "CAN",
      "addressLabel": "30 Falstaff Ave, North York, ON M6L 2C9, Canada",
      "polygon": null,
      "polygon_json": null,
      "lat": 43.7159518,
      "lon": -79.5043507,
      "center_lon": null,
      "center_lat": null,
      "locationType": 2,
      "category": null,
      "deprecated": false
    }
  },
  {
    "type": "Feature",
    "geometry": {
      "type": "Point",
      "coordinates": [
        -79.38326,
        43.65621
      ]
    },
    "properties": {
      "id": 180844,
      "name": null,
      "radius": 200,
      "poiType": 2,
      "chainId": null,
      "address": "595 Bay St",
      "city": "Toronto",
      "region": "ON",
      "postalCode": "M5G 2C2",
      "country": "CAN",
      "addressLabel": "595 Bay St, Toronto, ON M5G 2C2, Canada",
      "polygon": null,
      "polygon_json": null,
      "lat": 43.65621,
      "lon": -79.38326,
      "center_lon": null,
      "center_lat": null,
      "locationType": 2,
      "category": null,
      "deprecated": false
    }
  },
  {
    "type": "Feature",
    "geometry": {
      "type": "Point",
      "coordinates": [
        -79.38731,
        43.65445
      ]
    },
    "properties": {
      "id": 180845,
      "name": null,
      "radius": 200,
      "poiType": 2,
      "chainId": null,
      "address": "439 University Ave",
      "city": "Toronto",
      "region": "ON",
      "postalCode": "M5G 1Y8",
      "country": "CAN",
      "addressLabel": "439 University Ave, Toronto, ON M5G 1Y8, Canada",
      "polygon": null,
      "polygon_json": null,
      "lat": 43.65445,
      "lon": -79.38731,
      "center_lon": null,
      "center_lat": null,
      "locationType": 2,
      "category": null,
      "deprecated": false
    }
  },
  {
    "type": "Feature",
    "geometry": {
      "type": "Point",
      "coordinates": [
        -79.44071,
        43.66952
      ]
    },
    "properties": {
      "id": 180846,
      "name": null,
      "radius": 200,
      "poiType": 2,
      "chainId": null,
      "address": "274 Geary Ave",
      "city": "Toronto",
      "region": "ON",
      "postalCode": "M6H 2C5",
      "country": "CAN",
      "addressLabel": "274 Geary Ave, Toronto, ON M6H 2C5, Canada",
      "polygon": null,
      "polygon_json": null,
      "lat": 43.66952,
      "lon": -79.44071,
      "center_lon": null,
      "center_lat": null,
      "locationType": 2,
      "category": null,
      "deprecated": false
    }
  },
  {
    "type": "Feature",
    "geometry": {
      "type": "Point",
      "coordinates": [
        -79.50893,
        43.68929
      ]
    },
    "properties": {
      "id": 180847,
      "name": null,
      "radius": 200,
      "poiType": 2,
      "chainId": null,
      "address": "82 Buttonwood Ave",
      "city": "Toronto",
      "region": "ON",
      "postalCode": "M6M 2J5",
      "country": "CAN",
      "addressLabel": "82 Buttonwood Ave, York, ON M6M 2J5, Canada",
      "polygon": null,
      "polygon_json": null,
      "lat": 43.68929,
      "lon": -79.50893,
      "center_lon": null,
      "center_lat": null,
      "locationType": 2,
      "category": null,
      "deprecated": false
    }
  },
  {
    "type": "Feature",
    "geometry": {
      "type": "Point",
      "coordinates": [
        -79.3887,
        43.66114
      ]
    },
    "properties": {
      "id": 180848,
      "name": null,
      "radius": 200,
      "poiType": 2,
      "chainId": null,
      "address": "2 Surrey Pl",
      "city": "Toronto",
      "region": "ON",
      "postalCode": "M5S 2C2",
      "country": "CAN",
      "addressLabel": "2 Surrey Pl, Toronto, ON M5S 2C2, Canada",
      "polygon": null,
      "polygon_json": null,
      "lat": 43.66114,
      "lon": -79.3887,
      "center_lon": null,
      "center_lat": null,
      "locationType": 2,
      "category": null,
      "deprecated": false
    }
  },
  {
    "type": "Feature",
    "geometry": {
      "type": "Point",
      "coordinates": [
        -79.49159,
        43.79593
      ]
    },
    "properties": {
      "id": 180849,
      "name": null,
      "radius": 200,
      "poiType": 2,
      "chainId": null,
      "address": "175 Jardin Dr",
      "city": "Vaughan",
      "region": "ON",
      "postalCode": "L4K 1X5",
      "country": "CAN",
      "addressLabel": "175 Jardin Dr, Concord, ON L4K 1X5, Canada",
      "polygon": null,
      "polygon_json": null,
      "lat": 43.79593,
      "lon": -79.49159,
      "center_lon": null,
      "center_lat": null,
      "locationType": 2,
      "category": null,
      "deprecated": false
    }
  },
  {
    "type": "Feature",
    "geometry": {
      "type": "Point",
      "coordinates": [
        -79.37881,
        43.72149
      ]
    },
    "properties": {
      "id": 180850,
      "name": null,
      "radius": 200,
      "poiType": 2,
      "chainId": null,
      "address": "2075 Bayview Ave",
      "city": "Toronto",
      "region": "ON",
      "postalCode": "M4N 3M5",
      "country": "CAN",
      "addressLabel": "2075 Bayview Ave, Toronto, ON M4N 3M5, Canada",
      "polygon": null,
      "polygon_json": null,
      "lat": 43.72149,
      "lon": -79.37881,
      "center_lon": null,
      "center_lat": null,
      "locationType": 2,
      "category": null,
      "deprecated": false
    }
  },
  {
    "type": "Feature",
    "geometry": {
      "type": "Point",
      "coordinates": [
        -75.6904803,
        45.371842
      ]
    },
    "properties": {
      "id": 180851,
      "name": null,
      "radius": 200,
      "poiType": 2,
      "chainId": null,
      "address": "2827 Riverside Dr",
      "city": "Ottawa",
      "region": "ON",
      "postalCode": "K1V 0C4",
      "country": "CAN",
      "addressLabel": "2827 Riverside Dr, Ottawa, ON K1V 0C4, Canada",
      "polygon": null,
      "polygon_json": null,
      "lat": 45.371842,
      "lon": -75.6904803,
      "center_lon": null,
      "center_lat": null,
      "locationType": 2,
      "category": null,
      "deprecated": false
    }
  },
  {
    "type": "Feature",
    "geometry": {
      "type": "Point",
      "coordinates": [
        -79.53582,
        43.82157
      ]
    },
    "properties": {
      "id": 180852,
      "name": null,
      "radius": 200,
      "poiType": 2,
      "chainId": null,
      "address": "130 Bass Pro Mills Dr",
      "city": "Vaughan",
      "region": "ON",
      "postalCode": "L4K 5X2",
      "country": "CAN",
      "addressLabel": "130 Bass Pro Mills Dr, Concord, ON L4K 5X2, Canada",
      "polygon": null,
      "polygon_json": null,
      "lat": 43.82157,
      "lon": -79.53582,
      "center_lon": null,
      "center_lat": null,
      "locationType": 2,
      "category": null,
      "deprecated": false
    }
  },
  {
    "type": "Feature",
    "geometry": {
      "type": "Point",
      "coordinates": [
        -79.16518,
        43.77021
      ]
    },
    "properties": {
      "id": 180853,
      "name": null,
      "radius": 200,
      "poiType": 2,
      "chainId": null,
      "address": "None Bennett Rd",
      "city": "Toronto",
      "region": "ON",
      "postalCode": "M1E",
      "country": "CAN",
      "addressLabel": "Bennett Rd, Scarborough, ON M1E, Canada",
      "polygon": null,
      "polygon_json": null,
      "lat": 43.77021,
      "lon": -79.16518,
      "center_lon": null,
      "center_lat": null,
      "locationType": 2,
      "category": null,
      "deprecated": false
    }
  },
  {
    "type": "Feature",
    "geometry": {
      "type": "Point",
      "coordinates": [
        -79.38975,
        43.65481
      ]
    },
    "properties": {
      "id": 180854,
      "name": null,
      "radius": 200,
      "poiType": 2,
      "chainId": null,
      "address": "250 Dundas St W",
      "city": "Toronto",
      "region": "ON",
      "postalCode": "M5T 2Z5",
      "country": "CAN",
      "addressLabel": "250 Dundas St W, Toronto, ON M5T 2Z5, Canada",
      "polygon": null,
      "polygon_json": null,
      "lat": 43.65481,
      "lon": -79.38975,
      "center_lon": null,
      "center_lat": null,
      "locationType": 2,
      "category": null,
      "deprecated": false
    }
  },
  {
    "type": "Feature",
    "geometry": {
      "type": "Point",
      "coordinates": [
        -79.38991,
        43.65666
      ]
    },
    "properties": {
      "id": 180855,
      "name": null,
      "radius": 200,
      "poiType": 2,
      "chainId": null,
      "address": "550 University Ave",
      "city": "Toronto",
      "region": "ON",
      "postalCode": "M5G 2A2",
      "country": "CAN",
      "addressLabel": "550 University Ave, Toronto, ON M5G 2A2, Canada",
      "polygon": null,
      "polygon_json": null,
      "lat": 43.65666,
      "lon": -79.38991,
      "center_lon": null,
      "center_lat": null,
      "locationType": 2,
      "category": null,
      "deprecated": false
    }
  },
  {
    "type": "Feature",
    "geometry": {
      "type": "Point",
      "coordinates": [
        -79.37881,
        43.72149
      ]
    },
    "properties": {
      "id": 180856,
      "name": null,
      "radius": 200,
      "poiType": 2,
      "chainId": null,
      "address": "2075 Bayview Ave",
      "city": "Toronto",
      "region": "ON",
      "postalCode": "M4N 3M5",
      "country": "CAN",
      "addressLabel": "2075 Bayview Ave, Toronto, ON M4N 3M5, Canada",
      "polygon": null,
      "polygon_json": null,
      "lat": 43.72149,
      "lon": -79.37881,
      "center_lon": null,
      "center_lat": null,
      "locationType": 2,
      "category": null,
      "deprecated": false
    }
  },
  {
    "type": "Feature",
    "geometry": {
      "type": "Point",
      "coordinates": [
        -79.3904,
        43.65753
      ]
    },
    "properties": {
      "id": 180857,
      "name": null,
      "radius": 200,
      "poiType": 2,
      "chainId": null,
      "address": "600 University Ave",
      "city": "Toronto",
      "region": "ON",
      "postalCode": "M5G 1X5",
      "country": "CAN",
      "addressLabel": "600 University Ave, Toronto, ON M5G 1X5, Canada",
      "polygon": null,
      "polygon_json": null,
      "lat": 43.65753,
      "lon": -79.3904,
      "center_lon": null,
      "center_lat": null,
      "locationType": 2,
      "category": null,
      "deprecated": false
    }
  },
  {
    "type": "Feature",
    "geometry": {
      "type": "Point",
      "coordinates": [
        -79.37239,
        43.66056
      ]
    },
    "properties": {
      "id": 180858,
      "name": null,
      "radius": 200,
      "poiType": 2,
      "chainId": null,
      "address": "300 Sherbourne St",
      "city": "Toronto",
      "region": "ON",
      "postalCode": "M5A 2S1",
      "country": "CAN",
      "addressLabel": "300 Sherbourne St, Toronto, ON M5A 2S1, Canada",
      "polygon": null,
      "polygon_json": null,
      "lat": 43.66056,
      "lon": -79.37239,
      "center_lon": null,
      "center_lat": null,
      "locationType": 2,
      "category": null,
      "deprecated": false
    }
  },
  {
    "type": "Feature",
    "geometry": {
      "type": "Point",
      "coordinates": [
        -79.38451,
        43.66133
      ]
    },
    "properties": {
      "id": 180859,
      "name": null,
      "radius": 200,
      "poiType": 2,
      "chainId": null,
      "address": "30 College St",
      "city": "Toronto",
      "region": "ON",
      "postalCode": "M5G 1K2",
      "country": "CAN",
      "addressLabel": "30 College St, Toronto, ON M5G 1K2, Canada",
      "polygon": null,
      "polygon_json": null,
      "lat": 43.66133,
      "lon": -79.38451,
      "center_lon": null,
      "center_lat": null,
      "locationType": 2,
      "category": null,
      "deprecated": false
    }
  },
  {
    "type": "Feature",
    "geometry": {
      "type": "Point",
      "coordinates": [
        -79.39544,
        43.67319
      ]
    },
    "properties": {
      "id": 180860,
      "name": null,
      "radius": 200,
      "poiType": 2,
      "chainId": null,
      "address": "111 Avenue Rd",
      "city": "Toronto",
      "region": "ON",
      "postalCode": "M5R 3J8",
      "country": "CAN",
      "addressLabel": "111 Avenue Rd, Toronto, ON M5R 3J8, Canada",
      "polygon": null,
      "polygon_json": null,
      "lat": 43.67319,
      "lon": -79.39544,
      "center_lon": null,
      "center_lat": null,
      "locationType": 2,
      "category": null,
      "deprecated": false
    }
  },
  {
    "type": "Feature",
    "geometry": {
      "type": "Point",
      "coordinates": [
        -79.52145,
        43.634
      ]
    },
    "properties": {
      "id": 180861,
      "name": null,
      "radius": 200,
      "poiType": 2,
      "chainId": null,
      "address": "154 Norseman St",
      "city": "Toronto",
      "region": "ON",
      "postalCode": "M8Z 2R4",
      "country": "CAN",
      "addressLabel": "154 Norseman St, Etobicoke, ON M8Z 2R4, Canada",
      "polygon": null,
      "polygon_json": null,
      "lat": 43.634,
      "lon": -79.52145,
      "center_lon": null,
      "center_lat": null,
      "locationType": 2,
      "category": null,
      "deprecated": false
    }
  },
  {
    "type": "Feature",
    "geometry": {
      "type": "Point",
      "coordinates": [
        -79.37021,
        43.64757
      ]
    },
    "properties": {
      "id": 180862,
      "name": null,
      "radius": 200,
      "poiType": 2,
      "chainId": null,
      "address": "25 Henry Lane Ter",
      "city": "Toronto",
      "region": "ON",
      "postalCode": "M5A 4B5",
      "country": "CAN",
      "addressLabel": "25 Henry Lane Ter, Toronto, ON M5A 4B5, Canada",
      "polygon": null,
      "polygon_json": null,
      "lat": 43.64757,
      "lon": -79.37021,
      "center_lon": null,
      "center_lat": null,
      "locationType": 2,
      "category": null,
      "deprecated": false
    }
  },
  {
    "type": "Feature",
    "geometry": {
      "type": "Point",
      "coordinates": [
        -79.39121,
        43.68226
      ]
    },
    "properties": {
      "id": 180863,
      "name": null,
      "radius": 200,
      "poiType": 2,
      "chainId": null,
      "address": "1155 Yonge St",
      "city": "Toronto",
      "region": "ON",
      "postalCode": "M4T 1W2",
      "country": "CAN",
      "addressLabel": "1155 Yonge St, Toronto, ON M4T 1W2, Canada",
      "polygon": null,
      "polygon_json": null,
      "lat": 43.68226,
      "lon": -79.39121,
      "center_lon": null,
      "center_lat": null,
      "locationType": 2,
      "category": null,
      "deprecated": false
    }
  },
  {
    "type": "Feature",
    "geometry": {
      "type": "Point",
      "coordinates": [
        -79.27914,
        43.70175
      ]
    },
    "properties": {
      "id": 180864,
      "name": null,
      "radius": 200,
      "poiType": 2,
      "chainId": null,
      "address": "52 Cataraqui Cres",
      "city": "Toronto",
      "region": "ON",
      "postalCode": "M1L 1N7",
      "country": "CAN",
      "addressLabel": "52 Cataraqui Cres, Scarborough, ON M1L 1N7, Canada",
      "polygon": null,
      "polygon_json": null,
      "lat": 43.70175,
      "lon": -79.27914,
      "center_lon": null,
      "center_lat": null,
      "locationType": 2,
      "category": null,
      "deprecated": false
    }
  },
  {
    "type": "Feature",
    "geometry": {
      "type": "Point",
      "coordinates": [
        -79.61689,
        43.75358
      ]
    },
    "properties": {
      "id": 180865,
      "name": null,
      "radius": 200,
      "poiType": 2,
      "chainId": null,
      "address": "14 Goodmark Pl",
      "city": "Toronto",
      "region": "ON",
      "postalCode": "M9W 6R1",
      "country": "CAN",
      "addressLabel": "14 Goodmark Pl, Etobicoke, ON M9W 6R1, Canada",
      "polygon": null,
      "polygon_json": null,
      "lat": 43.75358,
      "lon": -79.61689,
      "center_lon": null,
      "center_lat": null,
      "locationType": 2,
      "category": null,
      "deprecated": false
    }
  },
  {
    "type": "Feature",
    "geometry": {
      "type": "Point",
      "coordinates": [
        -79.39312,
        43.68853
      ]
    },
    "properties": {
      "id": 180866,
      "name": null,
      "radius": 200,
      "poiType": 2,
      "chainId": null,
      "address": "22 St Clair Ave E",
      "city": "Toronto",
      "region": "ON",
      "postalCode": "M4T 2S3",
      "country": "CAN",
      "addressLabel": "22 St Clair Ave E, Toronto, ON M4T 2S3, Canada",
      "polygon": null,
      "polygon_json": null,
      "lat": 43.68853,
      "lon": -79.39312,
      "center_lon": null,
      "center_lat": null,
      "locationType": 2,
      "category": null,
      "deprecated": false
    }
  },
  {
    "type": "Feature",
    "geometry": {
      "type": "Point",
      "coordinates": [
        -79.37596,
        43.65032
      ]
    },
    "properties": {
      "id": 180867,
      "name": null,
      "radius": 200,
      "poiType": 2,
      "chainId": null,
      "address": "15 Toronto St",
      "city": "Toronto",
      "region": "ON",
      "postalCode": "M5C 2E3",
      "country": "CAN",
      "addressLabel": "15 Toronto St, Toronto, ON M5C 2E3, Canada",
      "polygon": null,
      "polygon_json": null,
      "lat": 43.65032,
      "lon": -79.37596,
      "center_lon": null,
      "center_lat": null,
      "locationType": 2,
      "category": null,
      "deprecated": false
    }
  },
  {
    "type": "Feature",
    "geometry": {
      "type": "Point",
      "coordinates": [
        -79.45261,
        43.65555
      ]
    },
    "properties": {
      "id": 180868,
      "name": null,
      "radius": 200,
      "poiType": 2,
      "chainId": null,
      "address": "2299 Dundas St W",
      "city": "Toronto",
      "region": "ON",
      "postalCode": "M6R 1X7",
      "country": "CAN",
      "addressLabel": "2299 Dundas St W, Toronto, ON M6R 1X7, Canada",
      "polygon": null,
      "polygon_json": null,
      "lat": 43.65555,
      "lon": -79.45261,
      "center_lon": null,
      "center_lat": null,
      "locationType": 2,
      "category": null,
      "deprecated": false
    }
  },
  {
    "type": "Feature",
    "geometry": {
      "type": "Point",
      "coordinates": [
        -79.43756,
        43.63506
      ]
    },
    "properties": {
      "id": 180869,
      "name": null,
      "radius": 200,
      "poiType": 2,
      "chainId": null,
      "address": "75 Dowling Ave",
      "city": "Toronto",
      "region": "ON",
      "postalCode": "M6K 3G7",
      "country": "CAN",
      "addressLabel": "75 Dowling Ave, Toronto, ON M6K 3G7, Canada",
      "polygon": null,
      "polygon_json": null,
      "lat": 43.63506,
      "lon": -79.43756,
      "center_lon": null,
      "center_lat": null,
      "locationType": 2,
      "category": null,
      "deprecated": false
    }
  },
  {
    "type": "Feature",
    "geometry": {
      "type": "Point",
      "coordinates": [
        -79.38502,
        43.65822
      ]
    },
    "properties": {
      "id": 180870,
      "name": null,
      "radius": 200,
      "poiType": 2,
      "chainId": null,
      "address": "700 Bay St",
      "city": "Toronto",
      "region": "ON",
      "postalCode": "M5G 1Z6",
      "country": "CAN",
      "addressLabel": "700 Bay St, Toronto, ON M5G 1Z6, Canada",
      "polygon": null,
      "polygon_json": null,
      "lat": 43.65822,
      "lon": -79.38502,
      "center_lon": null,
      "center_lat": null,
      "locationType": 2,
      "category": null,
      "deprecated": false
    }
  },
  {
    "type": "Feature",
    "geometry": {
      "type": "Point",
      "coordinates": [
        -79.39548,
        43.67006
      ]
    },
    "properties": {
      "id": 180871,
      "name": null,
      "radius": 200,
      "poiType": 2,
      "chainId": null,
      "address": "8 Prince Arthur Ave",
      "city": "Toronto",
      "region": "ON",
      "postalCode": "M5R 1A9",
      "country": "CAN",
      "addressLabel": "8 Prince Arthur Ave, Toronto, ON M5R 1A9, Canada",
      "polygon": null,
      "polygon_json": null,
      "lat": 43.67006,
      "lon": -79.39548,
      "center_lon": null,
      "center_lat": null,
      "locationType": 2,
      "category": null,
      "deprecated": false
    }
  },
  {
    "type": "Feature",
    "geometry": {
      "type": "Point",
      "coordinates": [
        -79.46975,
        43.69794
      ]
    },
    "properties": {
      "id": 180872,
      "name": null,
      "radius": 200,
      "poiType": 2,
      "chainId": null,
      "address": "1 Northwestern Ave",
      "city": "Toronto",
      "region": "ON",
      "postalCode": "M6M 2J7",
      "country": "CAN",
      "addressLabel": "1 Northwestern Ave, York, ON M6M 2J7, Canada",
      "polygon": null,
      "polygon_json": null,
      "lat": 43.69794,
      "lon": -79.46975,
      "center_lon": null,
      "center_lat": null,
      "locationType": 2,
      "category": null,
      "deprecated": false
    }
  },
  {
    "type": "Feature",
    "geometry": {
      "type": "Point",
      "coordinates": [
        -79.4008,
        43.64687
      ]
    },
    "properties": {
      "id": 180873,
      "name": null,
      "radius": 200,
      "poiType": 2,
      "chainId": null,
      "address": "533 Richmond St W",
      "city": "Toronto",
      "region": "ON",
      "postalCode": "M5V 3Y1",
      "country": "CAN",
      "addressLabel": "533 Richmond St W, Toronto, ON M5V 3Y1, Canada",
      "polygon": null,
      "polygon_json": null,
      "lat": 43.64687,
      "lon": -79.4008,
      "center_lon": null,
      "center_lat": null,
      "locationType": 2,
      "category": null,
      "deprecated": false
    }
  },
  {
    "type": "Feature",
    "geometry": {
      "type": "Point",
      "coordinates": [
        -79.3576,
        43.67527
      ]
    },
    "properties": {
      "id": 180874,
      "name": null,
      "radius": 200,
      "poiType": 2,
      "chainId": null,
      "address": "721 Broadview Ave",
      "city": "Toronto",
      "region": "ON",
      "postalCode": "M4K 3J9",
      "country": "CAN",
      "addressLabel": "721 Broadview Ave, Toronto, ON M4K 3J9, Canada",
      "polygon": null,
      "polygon_json": null,
      "lat": 43.67527,
      "lon": -79.3576,
      "center_lon": null,
      "center_lat": null,
      "locationType": 2,
      "category": null,
      "deprecated": false
    }
  },
  {
    "type": "Feature",
    "geometry": {
      "type": "Point",
      "coordinates": [
        -79.25723,
        43.6986
      ]
    },
    "properties": {
      "id": 180875,
      "name": null,
      "radius": 200,
      "poiType": 2,
      "chainId": null,
      "address": "3701 Danforth Ave",
      "city": "Toronto",
      "region": "ON",
      "postalCode": "M1N 2G2",
      "country": "CAN",
      "addressLabel": "3701 Danforth Ave, Scarborough, ON M1N 2G2, Canada",
      "polygon": null,
      "polygon_json": null,
      "lat": 43.6986,
      "lon": -79.25723,
      "center_lon": null,
      "center_lat": null,
      "locationType": 2,
      "category": null,
      "deprecated": false
    }
  },
  {
    "type": "Feature",
    "geometry": {
      "type": "Point",
      "coordinates": [
        -79.39092,
        43.67467
      ]
    },
    "properties": {
      "id": 180876,
      "name": null,
      "radius": 200,
      "poiType": 2,
      "chainId": null,
      "address": "55 Belmont St",
      "city": "Toronto",
      "region": "ON",
      "postalCode": "M5R 1R1",
      "country": "CAN",
      "addressLabel": "55 Belmont St, Toronto, ON M5R 1R1, Canada",
      "polygon": null,
      "polygon_json": null,
      "lat": 43.67467,
      "lon": -79.39092,
      "center_lon": null,
      "center_lat": null,
      "locationType": 2,
      "category": null,
      "deprecated": false
    }
  },
  {
    "type": "Feature",
    "geometry": {
      "type": "Point",
      "coordinates": [
        -79.38986,
        43.66998
      ]
    },
    "properties": {
      "id": 180877,
      "name": null,
      "radius": 200,
      "poiType": 2,
      "chainId": null,
      "address": "1200 Bay St",
      "city": "Toronto",
      "region": "ON",
      "postalCode": "M5R 2A5",
      "country": "CAN",
      "addressLabel": "1200 Bay St, Toronto, ON M5R 2A5, Canada",
      "polygon": null,
      "polygon_json": null,
      "lat": 43.66998,
      "lon": -79.38986,
      "center_lon": null,
      "center_lat": null,
      "locationType": 2,
      "category": null,
      "deprecated": false
    }
  },
  {
    "type": "Feature",
    "geometry": {
      "type": "Point",
      "coordinates": [
        -79.36499,
        43.64981
      ]
    },
    "properties": {
      "id": 180878,
      "name": null,
      "radius": 200,
      "poiType": 2,
      "chainId": null,
      "address": "230 The Esplanade",
      "city": "Toronto",
      "region": "ON",
      "postalCode": "M5A 4J6",
      "country": "CAN",
      "addressLabel": "230 The Esplanade, Toronto, ON M5A 4J6, Canada",
      "polygon": null,
      "polygon_json": null,
      "lat": 43.64981,
      "lon": -79.36499,
      "center_lon": null,
      "center_lat": null,
      "locationType": 2,
      "category": null,
      "deprecated": false
    }
  },
  {
    "type": "Feature",
    "geometry": {
      "type": "Point",
      "coordinates": [
        -79.40485,
        43.65179
      ]
    },
    "properties": {
      "id": 180879,
      "name": null,
      "radius": 200,
      "poiType": 2,
      "chainId": null,
      "address": "707 Dundas St W",
      "city": "Toronto",
      "region": "ON",
      "postalCode": "M5T 2W6",
      "country": "CAN",
      "addressLabel": "707 Dundas St W, Toronto, ON M5T 2W6, Canada",
      "polygon": null,
      "polygon_json": null,
      "lat": 43.65179,
      "lon": -79.40485,
      "center_lon": null,
      "center_lat": null,
      "locationType": 2,
      "category": null,
      "deprecated": false
    }
  },
  {
    "type": "Feature",
    "geometry": {
      "type": "Point",
      "coordinates": [
        -79.43304,
        43.635
      ]
    },
    "properties": {
      "id": 180880,
      "name": null,
      "radius": 200,
      "poiType": 2,
      "chainId": null,
      "address": "130 Dunn Ave",
      "city": "Toronto",
      "region": "ON",
      "postalCode": "M6K 2R6",
      "country": "CAN",
      "addressLabel": "130 Dunn Ave, Toronto, ON M6K 2R6, Canada",
      "polygon": null,
      "polygon_json": null,
      "lat": 43.635,
      "lon": -79.43304,
      "center_lon": null,
      "center_lat": null,
      "locationType": 2,
      "category": null,
      "deprecated": false
    }
  },
  {
    "type": "Feature",
    "geometry": {
      "type": "Point",
      "coordinates": [
        -79.39073,
        43.65623
      ]
    },
    "properties": {
      "id": 180881,
      "name": null,
      "radius": 200,
      "poiType": 2,
      "chainId": null,
      "address": "176 Elm St",
      "city": "Toronto",
      "region": "ON",
      "postalCode": "M5T 3M4",
      "country": "CAN",
      "addressLabel": "176 Elm St, Toronto, ON M5T 3M4, Canada",
      "polygon": null,
      "polygon_json": null,
      "lat": 43.65623,
      "lon": -79.39073,
      "center_lon": null,
      "center_lat": null,
      "locationType": 2,
      "category": null,
      "deprecated": false
    }
  },
  {
    "type": "Feature",
    "geometry": {
      "type": "Point",
      "coordinates": [
        -79.41856,
        43.66478
      ]
    },
    "properties": {
      "id": 180882,
      "name": null,
      "radius": 200,
      "poiType": 2,
      "chainId": null,
      "address": "33 Christie St",
      "city": "Toronto",
      "region": "ON",
      "postalCode": "M6G 3B1",
      "country": "CAN",
      "addressLabel": "33 Christie St, Toronto, ON M6G 3B1, Canada",
      "polygon": null,
      "polygon_json": null,
      "lat": 43.66478,
      "lon": -79.41856,
      "center_lon": null,
      "center_lat": null,
      "locationType": 2,
      "category": null,
      "deprecated": false
    }
  },
  {
    "type": "Feature",
    "geometry": {
      "type": "Point",
      "coordinates": [
        -79.38848,
        43.66222
      ]
    },
    "properties": {
      "id": 180883,
      "name": null,
      "radius": 200,
      "poiType": 2,
      "chainId": null,
      "address": "80 Grosvenor St",
      "city": "Toronto",
      "region": "ON",
      "postalCode": "M7A 1E9",
      "country": "CAN",
      "addressLabel": "80 Grosvenor St, Toronto, ON M7A 1E9, Canada",
      "polygon": null,
      "polygon_json": null,
      "lat": 43.66222,
      "lon": -79.38848,
      "center_lon": null,
      "center_lat": null,
      "locationType": 2,
      "category": null,
      "deprecated": false
    }
  },
  {
    "type": "Feature",
    "geometry": {
      "type": "Point",
      "coordinates": [
        -79.38734,
        43.66151
      ]
    },
    "properties": {
      "id": 180884,
      "name": null,
      "radius": 200,
      "poiType": 2,
      "chainId": null,
      "address": "76 Grenville St",
      "city": "Toronto",
      "region": "ON",
      "postalCode": "M5S 1B2",
      "country": "CAN",
      "addressLabel": "76 Grenville St, Toronto, ON M5S 1B2, Canada",
      "polygon": null,
      "polygon_json": null,
      "lat": 43.66151,
      "lon": -79.38734,
      "center_lon": null,
      "center_lat": null,
      "locationType": 2,
      "category": null,
      "deprecated": false
    }
  },
  {
    "type": "Feature",
    "geometry": {
      "type": "Point",
      "coordinates": [
        -79.29286,
        43.66852
      ]
    },
    "properties": {
      "id": 180885,
      "name": null,
      "radius": 200,
      "poiType": 2,
      "chainId": null,
      "address": "42 Hubbard Blvd",
      "city": "Toronto",
      "region": "ON",
      "postalCode": "M4E 1A3",
      "country": "CAN",
      "addressLabel": "42 Hubbard Blvd, Toronto, ON M4E 1A3, Canada",
      "polygon": null,
      "polygon_json": null,
      "lat": 43.66852,
      "lon": -79.29286,
      "center_lon": null,
      "center_lat": null,
      "locationType": 2,
      "category": null,
      "deprecated": false
    }
  },
  {
    "type": "Feature",
    "geometry": {
      "type": "Point",
      "coordinates": [
        -79.43923,
        43.66732
      ]
    },
    "properties": {
      "id": 180886,
      "name": null,
      "radius": 200,
      "poiType": 2,
      "chainId": null,
      "address": "1260 Dufferin St",
      "city": "Toronto",
      "region": "ON",
      "postalCode": "M6H 4C3",
      "country": "CAN",
      "addressLabel": "1260 Dufferin St, Toronto, ON M6H 4C3, Canada",
      "polygon": null,
      "polygon_json": null,
      "lat": 43.66732,
      "lon": -79.43923,
      "center_lon": null,
      "center_lat": null,
      "locationType": 2,
      "category": null,
      "deprecated": false
    }
  },
  {
    "type": "Feature",
    "geometry": {
      "type": "Point",
      "coordinates": [
        -79.40402,
        43.66621
      ]
    },
    "properties": {
      "id": 180887,
      "name": null,
      "radius": 200,
      "poiType": 2,
      "chainId": null,
      "address": "750 Spadina Ave",
      "city": "Toronto",
      "region": "ON",
      "postalCode": "M5S 2J2",
      "country": "CAN",
      "addressLabel": "750 Spadina Ave, Toronto, ON M5S 2J2, Canada",
      "polygon": null,
      "polygon_json": null,
      "lat": 43.66621,
      "lon": -79.40402,
      "center_lon": null,
      "center_lat": null,
      "locationType": 2,
      "category": null,
      "deprecated": false
    }
  },
  {
    "type": "Feature",
    "geometry": {
      "type": "Point",
      "coordinates": [
        -79.40546,
        43.67174
      ]
    },
    "properties": {
      "id": 180888,
      "name": null,
      "radius": 200,
      "poiType": 2,
      "chainId": null,
      "address": "123 Spadina Rd",
      "city": "Toronto",
      "region": "ON",
      "postalCode": "M5R 2T1",
      "country": "CAN",
      "addressLabel": "123 Spadina Rd, Toronto, ON M5R 2T1, Canada",
      "polygon": null,
      "polygon_json": null,
      "lat": 43.67174,
      "lon": -79.40546,
      "center_lon": null,
      "center_lat": null,
      "locationType": 2,
      "category": null,
      "deprecated": false
    }
  },
  {
    "type": "Feature",
    "geometry": {
      "type": "Point",
      "coordinates": [
        -79.32771,
        43.77045
      ]
    },
    "properties": {
      "id": 180889,
      "name": null,
      "radius": 200,
      "poiType": 2,
      "chainId": null,
      "address": "255 Consumers Rd",
      "city": "Toronto",
      "region": "ON",
      "postalCode": "M2J 1R4",
      "country": "CAN",
      "addressLabel": "255 Consumers Rd, North York, ON M2J 1R4, Canada",
      "polygon": null,
      "polygon_json": null,
      "lat": 43.77045,
      "lon": -79.32771,
      "center_lon": null,
      "center_lat": null,
      "locationType": 2,
      "category": null,
      "deprecated": false
    }
  },
  {
    "type": "Feature",
    "geometry": {
      "type": "Point",
      "coordinates": [
        -79.38743,
        43.65512
      ]
    },
    "properties": {
      "id": 180890,
      "name": null,
      "radius": 200,
      "poiType": 2,
      "chainId": null,
      "address": "210 Dundas St W",
      "city": "Toronto",
      "region": "ON",
      "postalCode": "M5G 2E8",
      "country": "CAN",
      "addressLabel": "210 Dundas St W, Toronto, ON M5G 2E8, Canada",
      "polygon": null,
      "polygon_json": null,
      "lat": 43.65512,
      "lon": -79.38743,
      "center_lon": null,
      "center_lat": null,
      "locationType": 2,
      "category": null,
      "deprecated": false
    }
  },
  {
    "type": "Feature",
    "geometry": {
      "type": "Point",
      "coordinates": [
        -79.37837,
        43.66606
      ]
    },
    "properties": {
      "id": 180891,
      "name": null,
      "radius": 200,
      "poiType": 2,
      "chainId": null,
      "address": "111 Wellesley St E",
      "city": "Toronto",
      "region": "ON",
      "postalCode": "M4Y 2Y2",
      "country": "CAN",
      "addressLabel": "111 Wellesley St E, Toronto, ON M4Y 2Y2, Canada",
      "polygon": null,
      "polygon_json": null,
      "lat": 43.66606,
      "lon": -79.37837,
      "center_lon": null,
      "center_lat": null,
      "locationType": 2,
      "category": null,
      "deprecated": false
    }
  },
  {
    "type": "Feature",
    "geometry": {
      "type": "Point",
      "coordinates": [
        -79.39016,
        43.66988
      ]
    },
    "properties": {
      "id": 180892,
      "name": null,
      "radius": 200,
      "poiType": 2,
      "chainId": null,
      "address": "80 Bloor St W",
      "city": "Toronto",
      "region": "ON",
      "postalCode": "M5S 2V1",
      "country": "CAN",
      "addressLabel": "80 Bloor St W, Toronto, ON M5S 2V1, Canada",
      "polygon": null,
      "polygon_json": null,
      "lat": 43.66988,
      "lon": -79.39016,
      "center_lon": null,
      "center_lat": null,
      "locationType": 2,
      "category": null,
      "deprecated": false
    }
  },
  {
    "type": "Feature",
    "geometry": {
      "type": "Point",
      "coordinates": [
        -79.49922,
        43.66527
      ]
    },
    "properties": {
      "id": 180893,
      "name": null,
      "radius": 200,
      "poiType": 2,
      "chainId": null,
      "address": "3735 Dundas St W",
      "city": "Toronto",
      "region": "ON",
      "postalCode": "M6S 2T6",
      "country": "CAN",
      "addressLabel": "3735 Dundas St W, York, ON M6S 2T6, Canada",
      "polygon": null,
      "polygon_json": null,
      "lat": 43.66527,
      "lon": -79.49922,
      "center_lon": null,
      "center_lat": null,
      "locationType": 2,
      "category": null,
      "deprecated": false
    }
  },
  {
    "type": "Feature",
    "geometry": {
      "type": "Point",
      "coordinates": [
        -79.37831,
        43.70488
      ]
    },
    "properties": {
      "id": 180894,
      "name": null,
      "radius": 200,
      "poiType": 2,
      "chainId": null,
      "address": "181 Cleveland St",
      "city": "Toronto",
      "region": "ON",
      "postalCode": "M4S 3C1",
      "country": "CAN",
      "addressLabel": "181 Cleveland St, Toronto, ON M4S 3C1, Canada",
      "polygon": null,
      "polygon_json": null,
      "lat": 43.70488,
      "lon": -79.37831,
      "center_lon": null,
      "center_lat": null,
      "locationType": 2,
      "category": null,
      "deprecated": false
    }
  },
  {
    "type": "Feature",
    "geometry": {
      "type": "Point",
      "coordinates": [
        -79.3809,
        43.66655
      ]
    },
    "properties": {
      "id": 180895,
      "name": null,
      "radius": 200,
      "poiType": 2,
      "chainId": null,
      "address": "519 Church St",
      "city": "Toronto",
      "region": "ON",
      "postalCode": "M4Y 2C9",
      "country": "CAN",
      "addressLabel": "519 Church St, Toronto, ON M4Y 2C9, Canada",
      "polygon": null,
      "polygon_json": null,
      "lat": 43.66655,
      "lon": -79.3809,
      "center_lon": null,
      "center_lat": null,
      "locationType": 2,
      "category": null,
      "deprecated": false
    }
  },
  {
    "type": "Feature",
    "geometry": {
      "type": "Point",
      "coordinates": [
        -79.36617,
        43.77962
      ]
    },
    "properties": {
      "id": 180896,
      "name": null,
      "radius": 200,
      "poiType": 2,
      "chainId": null,
      "address": "4800 Leslie St",
      "city": "Toronto",
      "region": "ON",
      "postalCode": "M2J 2K9",
      "country": "CAN",
      "addressLabel": "4800 Leslie St, North York, ON M2J 2K9, Canada",
      "polygon": null,
      "polygon_json": null,
      "lat": 43.77962,
      "lon": -79.36617,
      "center_lon": null,
      "center_lat": null,
      "locationType": 2,
      "category": null,
      "deprecated": false
    }
  },
  {
    "type": "Feature",
    "geometry": {
      "type": "Point",
      "coordinates": [
        -79.38986,
        43.66998
      ]
    },
    "properties": {
      "id": 180897,
      "name": null,
      "radius": 200,
      "poiType": 2,
      "chainId": null,
      "address": "1200 Bay St",
      "city": "Toronto",
      "region": "ON",
      "postalCode": "M5R 2A5",
      "country": "CAN",
      "addressLabel": "1200 Bay St, Toronto, ON M5R 2A5, Canada",
      "polygon": null,
      "polygon_json": null,
      "lat": 43.66998,
      "lon": -79.38986,
      "center_lon": null,
      "center_lat": null,
      "locationType": 2,
      "category": null,
      "deprecated": false
    }
  },
  {
    "type": "Feature",
    "geometry": {
      "type": "Point",
      "coordinates": [
        -79.3768417,
        43.6530685
      ]
    },
    "properties": {
      "id": 180898,
      "name": null,
      "radius": 200,
      "poiType": 2,
      "chainId": null,
      "address": "54 Queen St E",
      "city": "Toronto",
      "region": "ON",
      "postalCode": "M5C",
      "country": "CAN",
      "addressLabel": "54 Queen St E, Toronto, ON M5C, Canada",
      "polygon": null,
      "polygon_json": null,
      "lat": 43.6530685,
      "lon": -79.3768417,
      "center_lon": null,
      "center_lat": null,
      "locationType": 2,
      "category": null,
      "deprecated": false
    }
  },
  {
    "type": "Feature",
    "geometry": {
      "type": "Point",
      "coordinates": [
        -79.37469,
        43.66789
      ]
    },
    "properties": {
      "id": 180899,
      "name": null,
      "radius": 200,
      "poiType": 2,
      "chainId": null,
      "address": "495 Sherbourne St",
      "city": "Toronto",
      "region": "ON",
      "postalCode": "M4X 1K7",
      "country": "CAN",
      "addressLabel": "495 Sherbourne St, Toronto, ON M4X 1K7, Canada",
      "polygon": null,
      "polygon_json": null,
      "lat": 43.66789,
      "lon": -79.37469,
      "center_lon": null,
      "center_lat": null,
      "locationType": 2,
      "category": null,
      "deprecated": false
    }
  },
  {
    "type": "Feature",
    "geometry": {
      "type": "Point",
      "coordinates": [
        -79.38614,
        43.66045
      ]
    },
    "properties": {
      "id": 180900,
      "name": null,
      "radius": 200,
      "poiType": 2,
      "chainId": null,
      "address": "790 Bay St",
      "city": "Toronto",
      "region": "ON",
      "postalCode": "M5G 1N8",
      "country": "CAN",
      "addressLabel": "790 Bay St, Toronto, ON M5G 1N8, Canada",
      "polygon": null,
      "polygon_json": null,
      "lat": 43.66045,
      "lon": -79.38614,
      "center_lon": null,
      "center_lat": null,
      "locationType": 2,
      "category": null,
      "deprecated": false
    }
  },
  {
    "type": "Feature",
    "geometry": {
      "type": "Point",
      "coordinates": [
        -79.43157,
        43.66096
      ]
    },
    "properties": {
      "id": 180901,
      "name": null,
      "radius": 200,
      "poiType": 2,
      "chainId": null,
      "address": "1032 Bloor St W",
      "city": "Toronto",
      "region": "ON",
      "postalCode": "M6H 1M2",
      "country": "CAN",
      "addressLabel": "1032 Bloor St W, Toronto, ON M6H 1M2, Canada",
      "polygon": null,
      "polygon_json": null,
      "lat": 43.66096,
      "lon": -79.43157,
      "center_lon": null,
      "center_lat": null,
      "locationType": 2,
      "category": null,
      "deprecated": false
    }
  },
  {
    "type": "Feature",
    "geometry": {
      "type": "Point",
      "coordinates": [
        -79.40127,
        43.68491
      ]
    },
    "properties": {
      "id": 180902,
      "name": null,
      "radius": 200,
      "poiType": 2,
      "chainId": null,
      "address": "454 Avenue Rd",
      "city": "Toronto",
      "region": "ON",
      "postalCode": "M4V 2J1",
      "country": "CAN",
      "addressLabel": "454 Avenue Rd, Toronto, ON M4V 2J1, Canada",
      "polygon": null,
      "polygon_json": null,
      "lat": 43.68491,
      "lon": -79.40127,
      "center_lon": null,
      "center_lat": null,
      "locationType": 2,
      "category": null,
      "deprecated": false
    }
  },
  {
    "type": "Feature",
    "geometry": {
      "type": "Point",
      "coordinates": [
        -79.35782,
        43.6796
      ]
    },
    "properties": {
      "id": 180903,
      "name": null,
      "radius": 200,
      "poiType": 2,
      "chainId": null,
      "address": "855 Broadview Ave",
      "city": "Toronto",
      "region": "ON",
      "postalCode": "M4K 3Z1",
      "country": "CAN",
      "addressLabel": "855 Broadview Ave, Toronto, ON M4K 3Z1, Canada",
      "polygon": null,
      "polygon_json": null,
      "lat": 43.6796,
      "lon": -79.35782,
      "center_lon": null,
      "center_lat": null,
      "locationType": 2,
      "category": null,
      "deprecated": false
    }
  },
  {
    "type": "Feature",
    "geometry": {
      "type": "Point",
      "coordinates": [
        -79.41201,
        43.66627
      ]
    },
    "properties": {
      "id": 180904,
      "name": null,
      "radius": 200,
      "poiType": 2,
      "chainId": null,
      "address": "844 Bathurst St",
      "city": "Toronto",
      "region": "ON",
      "postalCode": "M5R 3G1",
      "country": "CAN",
      "addressLabel": "844 Bathurst St, Toronto, ON M5R 3G1, Canada",
      "polygon": null,
      "polygon_json": null,
      "lat": 43.66627,
      "lon": -79.41201,
      "center_lon": null,
      "center_lat": null,
      "locationType": 2,
      "category": null,
      "deprecated": false
    }
  },
  {
    "type": "Feature",
    "geometry": {
      "type": "Point",
      "coordinates": [
        -79.40458,
        43.70611
      ]
    },
    "properties": {
      "id": 180905,
      "name": null,
      "radius": 200,
      "poiType": 2,
      "chainId": null,
      "address": "200 Eglinton Ave W",
      "city": "Toronto",
      "region": "ON",
      "postalCode": "M4R 1A7",
      "country": "CAN",
      "addressLabel": "200 Eglinton Ave W, Toronto, ON M4R 1A7, Canada",
      "polygon": null,
      "polygon_json": null,
      "lat": 43.70611,
      "lon": -79.40458,
      "center_lon": null,
      "center_lat": null,
      "locationType": 2,
      "category": null,
      "deprecated": false
    }
  },
  {
    "type": "Feature",
    "geometry": {
      "type": "Point",
      "coordinates": [
        -79.39855,
        43.65646
      ]
    },
    "properties": {
      "id": 180906,
      "name": null,
      "radius": 200,
      "poiType": 2,
      "chainId": null,
      "address": "58 Cecil St",
      "city": "Toronto",
      "region": "ON",
      "postalCode": "M5T 1N6",
      "country": "CAN",
      "addressLabel": "58 Cecil St, Toronto, ON M5T 1N6, Canada",
      "polygon": null,
      "polygon_json": null,
      "lat": 43.65646,
      "lon": -79.39855,
      "center_lon": null,
      "center_lat": null,
      "locationType": 2,
      "category": null,
      "deprecated": false
    }
  },
  {
    "type": "Feature",
    "geometry": {
      "type": "Point",
      "coordinates": [
        -79.40066,
        43.68577
      ]
    },
    "properties": {
      "id": 180907,
      "name": null,
      "radius": 200,
      "poiType": 2,
      "chainId": null,
      "address": "54 Foxbar Rd",
      "city": "Toronto",
      "region": "ON",
      "postalCode": "M4V 2G6",
      "country": "CAN",
      "addressLabel": "54 Foxbar Rd, Toronto, ON M4V 2G6, Canada",
      "polygon": null,
      "polygon_json": null,
      "lat": 43.68577,
      "lon": -79.40066,
      "center_lon": null,
      "center_lat": null,
      "locationType": 2,
      "category": null,
      "deprecated": false
    }
  },
  {
    "type": "Feature",
    "geometry": {
      "type": "Point",
      "coordinates": [
        -79.38226,
        43.66026
      ]
    },
    "properties": {
      "id": 180908,
      "name": null,
      "radius": 200,
      "poiType": 2,
      "chainId": null,
      "address": "423 Yonge St",
      "city": "Toronto",
      "region": "ON",
      "postalCode": "M5B 1T2",
      "country": "CAN",
      "addressLabel": "423 Yonge St, Toronto, ON M5B 1T2, Canada",
      "polygon": null,
      "polygon_json": null,
      "lat": 43.66026,
      "lon": -79.38226,
      "center_lon": null,
      "center_lat": null,
      "locationType": 2,
      "category": null,
      "deprecated": false
    }
  },
  {
    "type": "Feature",
    "geometry": {
      "type": "Point",
      "coordinates": [
        -79.47596,
        43.78654
      ]
    },
    "properties": {
      "id": 180909,
      "name": null,
      "radius": 200,
      "poiType": 2,
      "chainId": null,
      "address": "34 Futurity Gate",
      "city": "Vaughan",
      "region": "ON",
      "postalCode": "L4K 1S6",
      "country": "CAN",
      "addressLabel": "34 Futurity Gate, Concord, ON L4K 1S6, Canada",
      "polygon": null,
      "polygon_json": null,
      "lat": 43.78654,
      "lon": -79.47596,
      "center_lon": null,
      "center_lat": null,
      "locationType": 2,
      "category": null,
      "deprecated": false
    }
  },
  {
    "type": "Feature",
    "geometry": {
      "type": "Point",
      "coordinates": [
        -79.38152,
        43.6559
      ]
    },
    "properties": {
      "id": 180910,
      "name": null,
      "radius": 200,
      "poiType": 2,
      "chainId": null,
      "address": "1 Dundas St W",
      "city": "Toronto",
      "region": "ON",
      "postalCode": "M5G 1Z3",
      "country": "CAN",
      "addressLabel": "1 Dundas St W, Toronto, ON M5G 1Z3, Canada",
      "polygon": null,
      "polygon_json": null,
      "lat": 43.6559,
      "lon": -79.38152,
      "center_lon": null,
      "center_lat": null,
      "locationType": 2,
      "category": null,
      "deprecated": false
    }
  },
  {
    "type": "Feature",
    "geometry": {
      "type": "Point",
      "coordinates": [
        -79.38032,
        43.66526
      ]
    },
    "properties": {
      "id": 180911,
      "name": null,
      "radius": 200,
      "poiType": 2,
      "chainId": null,
      "address": "491 Church St",
      "city": "Toronto",
      "region": "ON",
      "postalCode": "M4Y 2C6",
      "country": "CAN",
      "addressLabel": "491 Church St, Toronto, ON M4Y 2C6, Canada",
      "polygon": null,
      "polygon_json": null,
      "lat": 43.66526,
      "lon": -79.38032,
      "center_lon": null,
      "center_lat": null,
      "locationType": 2,
      "category": null,
      "deprecated": false
    }
  },
  {
    "type": "Feature",
    "geometry": {
      "type": "Point",
      "coordinates": [
        -79.56622,
        43.62478
      ]
    },
    "properties": {
      "id": 180912,
      "name": null,
      "radius": 200,
      "poiType": 2,
      "chainId": null,
      "address": "2130 Dundas St E",
      "city": "Mississauga",
      "region": "ON",
      "postalCode": "L4X 1L9",
      "country": "CAN",
      "addressLabel": "2130 Dundas St E, Mississauga, ON L4X 1L9, Canada",
      "polygon": null,
      "polygon_json": null,
      "lat": 43.62478,
      "lon": -79.56622,
      "center_lon": null,
      "center_lat": null,
      "locationType": 2,
      "category": null,
      "deprecated": false
    }
  },
  {
    "type": "Feature",
    "geometry": {
      "type": "Point",
      "coordinates": [
        -79.38851,
        43.67551
      ]
    },
    "properties": {
      "id": 180913,
      "name": null,
      "radius": 200,
      "poiType": 2,
      "chainId": null,
      "address": "931 Yonge St",
      "city": "Toronto",
      "region": "ON",
      "postalCode": "M4W 2H2",
      "country": "CAN",
      "addressLabel": "931 Yonge St, Toronto, ON M4W 2H2, Canada",
      "polygon": null,
      "polygon_json": null,
      "lat": 43.67551,
      "lon": -79.38851,
      "center_lon": null,
      "center_lat": null,
      "locationType": 2,
      "category": null,
      "deprecated": false
    }
  },
  {
    "type": "Feature",
    "geometry": {
      "type": "Point",
      "coordinates": [
        -79.41646,
        43.6792
      ]
    },
    "properties": {
      "id": 180914,
      "name": null,
      "radius": 200,
      "poiType": 2,
      "chainId": null,
      "address": "1339 Bathurst St",
      "city": "Toronto",
      "region": "ON",
      "postalCode": "M5R 3H6",
      "country": "CAN",
      "addressLabel": "1339 Bathurst St, Toronto, ON M5R 3H6, Canada",
      "polygon": null,
      "polygon_json": null,
      "lat": 43.6792,
      "lon": -79.41646,
      "center_lon": null,
      "center_lat": null,
      "locationType": 2,
      "category": null,
      "deprecated": false
    }
  },
  {
    "type": "Feature",
    "geometry": {
      "type": "Point",
      "coordinates": [
        -79.39621,
        43.69812
      ]
    },
    "properties": {
      "id": 180915,
      "name": null,
      "radius": 200,
      "poiType": 2,
      "chainId": null,
      "address": "1901 Yonge St",
      "city": "Toronto",
      "region": "ON",
      "postalCode": "M4S 1Y6",
      "country": "CAN",
      "addressLabel": "1901 Yonge St, Toronto, ON M4S 1Y6, Canada",
      "polygon": null,
      "polygon_json": null,
      "lat": 43.69812,
      "lon": -79.39621,
      "center_lon": null,
      "center_lat": null,
      "locationType": 2,
      "category": null,
      "deprecated": false
    }
  },
  {
    "type": "Feature",
    "geometry": {
      "type": "Point",
      "coordinates": [
        -79.38793,
        43.67425
      ]
    },
    "properties": {
      "id": 180916,
      "name": null,
      "radius": 200,
      "poiType": 2,
      "chainId": null,
      "address": "877 Yonge St",
      "city": "Toronto",
      "region": "ON",
      "postalCode": "M4W 3M2",
      "country": "CAN",
      "addressLabel": "877 Yonge St, Toronto, ON M4W 3M2, Canada",
      "polygon": null,
      "polygon_json": null,
      "lat": 43.67425,
      "lon": -79.38793,
      "center_lon": null,
      "center_lat": null,
      "locationType": 2,
      "category": null,
      "deprecated": false
    }
  },
  {
    "type": "Feature",
    "geometry": {
      "type": "Point",
      "coordinates": [
        -79.35784,
        43.65294
      ]
    },
    "properties": {
      "id": 180917,
      "name": null,
      "radius": 200,
      "poiType": 2,
      "chainId": null,
      "address": "461 Cherry St",
      "city": "Toronto",
      "region": "ON",
      "postalCode": "M5A 0H7",
      "country": "CAN",
      "addressLabel": "461 Cherry St, Toronto, ON M5A 0H7, Canada",
      "polygon": null,
      "polygon_json": null,
      "lat": 43.65294,
      "lon": -79.35784,
      "center_lon": null,
      "center_lat": null,
      "locationType": 2,
      "category": null,
      "deprecated": false
    }
  },
  {
    "type": "Feature",
    "geometry": {
      "type": "Point",
      "coordinates": [
        -79.37844,
        43.66042
      ]
    },
    "properties": {
      "id": 180918,
      "name": null,
      "radius": 200,
      "poiType": 2,
      "chainId": null,
      "address": "355 Church St",
      "city": "Toronto",
      "region": "ON",
      "postalCode": "M5B 0B2",
      "country": "CAN",
      "addressLabel": "355 Church St, Toronto, ON M5B 0B2, Canada",
      "polygon": null,
      "polygon_json": null,
      "lat": 43.66042,
      "lon": -79.37844,
      "center_lon": null,
      "center_lat": null,
      "locationType": 2,
      "category": null,
      "deprecated": false
    }
  },
  {
    "type": "Feature",
    "geometry": {
      "type": "Point",
      "coordinates": [
        -79.38744,
        43.65737
      ]
    },
    "properties": {
      "id": 180919,
      "name": null,
      "radius": 200,
      "poiType": 2,
      "chainId": null,
      "address": "555 University Ave",
      "city": "Toronto",
      "region": "ON",
      "postalCode": "M5G 1X8",
      "country": "CAN",
      "addressLabel": "555 University Ave, Toronto, ON M5G 1X8, Canada",
      "polygon": null,
      "polygon_json": null,
      "lat": 43.65737,
      "lon": -79.38744,
      "center_lon": null,
      "center_lat": null,
      "locationType": 2,
      "category": null,
      "deprecated": false
    }
  },
  {
    "type": "Feature",
    "geometry": {
      "type": "Point",
      "coordinates": [
        -79.36948,
        43.65558
      ]
    },
    "properties": {
      "id": 180920,
      "name": null,
      "radius": 200,
      "poiType": 2,
      "chainId": null,
      "address": "155 Sherbourne St",
      "city": "Toronto",
      "region": "ON",
      "postalCode": "M5A 3W2",
      "country": "CAN",
      "addressLabel": "155 Sherbourne St, Toronto, ON M5A 3W2, Canada",
      "polygon": null,
      "polygon_json": null,
      "lat": 43.65558,
      "lon": -79.36948,
      "center_lon": null,
      "center_lat": null,
      "locationType": 2,
      "category": null,
      "deprecated": false
    }
  },
  {
    "type": "Feature",
    "geometry": {
      "type": "Point",
      "coordinates": [
        -79.35678,
        43.66289
      ]
    },
    "properties": {
      "id": 180921,
      "name": null,
      "radius": 200,
      "poiType": 2,
      "chainId": null,
      "address": "220 Oak St",
      "city": "Toronto",
      "region": "ON",
      "postalCode": "M5A 2E1",
      "country": "CAN",
      "addressLabel": "220 Oak St, Toronto, ON M5A 2E1, Canada",
      "polygon": null,
      "polygon_json": null,
      "lat": 43.66289,
      "lon": -79.35678,
      "center_lon": null,
      "center_lat": null,
      "locationType": 2,
      "category": null,
      "deprecated": false
    }
  },
  {
    "type": "Feature",
    "geometry": {
      "type": "Point",
      "coordinates": [
        -79.38506,
        43.66305
      ]
    },
    "properties": {
      "id": 180922,
      "name": null,
      "radius": 200,
      "poiType": 2,
      "chainId": null,
      "address": "20 Grosvenor St",
      "city": "Toronto",
      "region": "ON",
      "postalCode": "M4Y 2V5",
      "country": "CAN",
      "addressLabel": "20 Grosvenor St, Toronto, ON M4Y 2V5, Canada",
      "polygon": null,
      "polygon_json": null,
      "lat": 43.66305,
      "lon": -79.38506,
      "center_lon": null,
      "center_lat": null,
      "locationType": 2,
      "category": null,
      "deprecated": false
    }
  },
  {
    "type": "Feature",
    "geometry": {
      "type": "Point",
      "coordinates": [
        -79.41233,
        43.68545
      ]
    },
    "properties": {
      "id": 180923,
      "name": null,
      "radius": 200,
      "poiType": 2,
      "chainId": null,
      "address": "429 Walmer Rd",
      "city": "Toronto",
      "region": "ON",
      "postalCode": "M5P 2X9",
      "country": "CAN",
      "addressLabel": "429 Walmer Rd, York, ON M5P 2X9, Canada",
      "polygon": null,
      "polygon_json": null,
      "lat": 43.68545,
      "lon": -79.41233,
      "center_lon": null,
      "center_lat": null,
      "locationType": 2,
      "category": null,
      "deprecated": false
    }
  },
  {
    "type": "Feature",
    "geometry": {
      "type": "Point",
      "coordinates": [
        -79.40142,
        43.67253
      ]
    },
    "properties": {
      "id": 180924,
      "name": null,
      "radius": 200,
      "poiType": 2,
      "chainId": null,
      "address": "225 St George St",
      "city": "Toronto",
      "region": "ON",
      "postalCode": "M5R 2M2",
      "country": "CAN",
      "addressLabel": "225 St George St, Toronto, ON M5R 2M2, Canada",
      "polygon": null,
      "polygon_json": null,
      "lat": 43.67253,
      "lon": -79.40142,
      "center_lon": null,
      "center_lat": null,
      "locationType": 2,
      "category": null,
      "deprecated": false
    }
  },
  {
    "type": "Feature",
    "geometry": {
      "type": "Point",
      "coordinates": [
        -79.39319,
        43.6542
      ]
    },
    "properties": {
      "id": 180925,
      "name": null,
      "radius": 200,
      "poiType": 2,
      "chainId": null,
      "address": "356 Dundas St W",
      "city": "Toronto",
      "region": "ON",
      "postalCode": "M5T 1G5",
      "country": "CAN",
      "addressLabel": "356 Dundas St W, Toronto, ON M5T 1G5, Canada",
      "polygon": null,
      "polygon_json": null,
      "lat": 43.6542,
      "lon": -79.39319,
      "center_lon": null,
      "center_lat": null,
      "locationType": 2,
      "category": null,
      "deprecated": false
    }
  },
  {
    "type": "Feature",
    "geometry": {
      "type": "Point",
      "coordinates": [
        -79.39082,
        43.65105
      ]
    },
    "properties": {
      "id": 180926,
      "name": null,
      "radius": 200,
      "poiType": 2,
      "chainId": null,
      "address": "15 Stephanie St",
      "city": "Toronto",
      "region": "ON",
      "postalCode": "M5T 1B1",
      "country": "CAN",
      "addressLabel": "15 Stephanie St, Toronto, ON M5T 1B1, Canada",
      "polygon": null,
      "polygon_json": null,
      "lat": 43.65105,
      "lon": -79.39082,
      "center_lon": null,
      "center_lat": null,
      "locationType": 2,
      "category": null,
      "deprecated": false
    }
  },
  {
    "type": "Feature",
    "geometry": {
      "type": "Point",
      "coordinates": [
        -79.43304,
        43.635
      ]
    },
    "properties": {
      "id": 180927,
      "name": null,
      "radius": 200,
      "poiType": 2,
      "chainId": null,
      "address": "130 Dunn Ave",
      "city": "Toronto",
      "region": "ON",
      "postalCode": "M6K 2R6",
      "country": "CAN",
      "addressLabel": "130 Dunn Ave, Toronto, ON M6K 2R6, Canada",
      "polygon": null,
      "polygon_json": null,
      "lat": 43.635,
      "lon": -79.43304,
      "center_lon": null,
      "center_lat": null,
      "locationType": 2,
      "category": null,
      "deprecated": false
    }
  },
  {
    "type": "Feature",
    "geometry": {
      "type": "Point",
      "coordinates": [
        -79.51519,
        43.69913
      ]
    },
    "properties": {
      "id": 180928,
      "name": null,
      "radius": 200,
      "poiType": 2,
      "chainId": null,
      "address": "5 Bellevue Cres",
      "city": "Toronto",
      "region": "ON",
      "postalCode": "M9N 1G5",
      "country": "CAN",
      "addressLabel": "5 Bellevue Cres, York, ON M9N 1G5, Canada",
      "polygon": null,
      "polygon_json": null,
      "lat": 43.69913,
      "lon": -79.51519,
      "center_lon": null,
      "center_lat": null,
      "locationType": 2,
      "category": null,
      "deprecated": false
    }
  },
  {
    "type": "Feature",
    "geometry": {
      "type": "Point",
      "coordinates": [
        -79.41796,
        43.80564
      ]
    },
    "properties": {
      "id": 180929,
      "name": null,
      "radius": 200,
      "poiType": 2,
      "chainId": null,
      "address": "39 Glen Cameron Rd",
      "city": "Markham",
      "region": "ON",
      "postalCode": "L3T 1P1",
      "country": "CAN",
      "addressLabel": "39 Glen Cameron Rd, Thornhill, ON L3T 1P1, Canada",
      "polygon": null,
      "polygon_json": null,
      "lat": 43.80564,
      "lon": -79.41796,
      "center_lon": null,
      "center_lat": null,
      "locationType": 2,
      "category": null,
      "deprecated": false
    }
  },
  {
    "type": "Feature",
    "geometry": {
      "type": "Point",
      "coordinates": [
        -79.36183,
        43.65785
      ]
    },
    "properties": {
      "id": 180930,
      "name": null,
      "radius": 200,
      "poiType": 2,
      "chainId": null,
      "address": "402 Shuter St",
      "city": "Toronto",
      "region": "ON",
      "postalCode": "M5A 1X6",
      "country": "CAN",
      "addressLabel": "402 Shuter St, Toronto, ON M5A 1X6, Canada",
      "polygon": null,
      "polygon_json": null,
      "lat": 43.65785,
      "lon": -79.36183,
      "center_lon": null,
      "center_lat": null,
      "locationType": 2,
      "category": null,
      "deprecated": false
    }
  },
  {
    "type": "Feature",
    "geometry": {
      "type": "Point",
      "coordinates": [
        -79.3036498,
        43.6879027
      ]
    },
    "properties": {
      "id": 180931,
      "name": null,
      "radius": 200,
      "poiType": 2,
      "chainId": null,
      "address": "2492 Danforth Ave",
      "city": "Toronto",
      "region": "ON",
      "postalCode": "M4C 1K9",
      "country": "CAN",
      "addressLabel": "2492 Danforth Ave, Toronto, ON M4C 1K9, Canada",
      "polygon": null,
      "polygon_json": null,
      "lat": 43.6879027,
      "lon": -79.3036498,
      "center_lon": null,
      "center_lat": null,
      "locationType": 2,
      "category": null,
      "deprecated": false
    }
  },
  {
    "type": "Feature",
    "geometry": {
      "type": "Point",
      "coordinates": [
        -79.41856,
        43.66478
      ]
    },
    "properties": {
      "id": 180932,
      "name": null,
      "radius": 200,
      "poiType": 2,
      "chainId": null,
      "address": "33 Christie St",
      "city": "Toronto",
      "region": "ON",
      "postalCode": "M6G 3B1",
      "country": "CAN",
      "addressLabel": "33 Christie St, Toronto, ON M6G 3B1, Canada",
      "polygon": null,
      "polygon_json": null,
      "lat": 43.66478,
      "lon": -79.41856,
      "center_lon": null,
      "center_lat": null,
      "locationType": 2,
      "category": null,
      "deprecated": false
    }
  },
  {
    "type": "Feature",
    "geometry": {
      "type": "Point",
      "coordinates": [
        -79.36967,
        43.71848
      ]
    },
    "properties": {
      "id": 180933,
      "name": null,
      "radius": 200,
      "poiType": 2,
      "chainId": null,
      "address": "520 Sutherland Dr",
      "city": "Toronto",
      "region": "ON",
      "postalCode": "M4G 3V9",
      "country": "CAN",
      "addressLabel": "520 Sutherland Dr, Toronto, ON M4G 3V9, Canada",
      "polygon": null,
      "polygon_json": null,
      "lat": 43.71848,
      "lon": -79.36967,
      "center_lon": null,
      "center_lat": null,
      "locationType": 2,
      "category": null,
      "deprecated": false
    }
  },
  {
    "type": "Feature",
    "geometry": {
      "type": "Point",
      "coordinates": [
        -79.2838359,
        43.7115805
      ]
    },
    "properties": {
      "id": 180934,
      "name": null,
      "radius": 200,
      "poiType": 2,
      "chainId": null,
      "address": "3276 St Clair Ave E",
      "city": "Toronto",
      "region": "ON",
      "postalCode": "M1L 1W1",
      "country": "CAN",
      "addressLabel": "3276 St Clair Ave E, Scarborough, ON M1L 1W1, Canada",
      "polygon": null,
      "polygon_json": null,
      "lat": 43.7115805,
      "lon": -79.2838359,
      "center_lon": null,
      "center_lat": null,
      "locationType": 2,
      "category": null,
      "deprecated": false
    }
  },
  {
    "type": "Feature",
    "geometry": {
      "type": "Point",
      "coordinates": [
        -79.30032,
        43.6882
      ]
    },
    "properties": {
      "id": 180935,
      "name": null,
      "radius": 200,
      "poiType": 2,
      "chainId": null,
      "address": "2575 Danforth Ave",
      "city": "Toronto",
      "region": "ON",
      "postalCode": "M4C 1L5",
      "country": "CAN",
      "addressLabel": "2575 Danforth Ave, Toronto, ON M4C 1L5, Canada",
      "polygon": null,
      "polygon_json": null,
      "lat": 43.6882,
      "lon": -79.30032,
      "center_lon": null,
      "center_lat": null,
      "locationType": 2,
      "category": null,
      "deprecated": false
    }
  },
  {
    "type": "Feature",
    "geometry": {
      "type": "Point",
      "coordinates": [
        -79.42998,
        43.71894
      ]
    },
    "properties": {
      "id": 180936,
      "name": null,
      "radius": 200,
      "poiType": 2,
      "chainId": null,
      "address": "3050 Bathurst St",
      "city": "Toronto",
      "region": "ON",
      "postalCode": "M6B 4K2",
      "country": "CAN",
      "addressLabel": "3050 Bathurst St, North York, ON M6B 4K2, Canada",
      "polygon": null,
      "polygon_json": null,
      "lat": 43.71894,
      "lon": -79.42998,
      "center_lon": null,
      "center_lat": null,
      "locationType": 2,
      "category": null,
      "deprecated": false
    }
  },
  {
    "type": "Feature",
    "geometry": {
      "type": "Point",
      "coordinates": [
        -79.36967,
        43.71848
      ]
    },
    "properties": {
      "id": 180937,
      "name": null,
      "radius": 200,
      "poiType": 2,
      "chainId": null,
      "address": "520 Sutherland Dr",
      "city": "Toronto",
      "region": "ON",
      "postalCode": "M4G 3V9",
      "country": "CAN",
      "addressLabel": "520 Sutherland Dr, Toronto, ON M4G 3V9, Canada",
      "polygon": null,
      "polygon_json": null,
      "lat": 43.71848,
      "lon": -79.36967,
      "center_lon": null,
      "center_lat": null,
      "locationType": 2,
      "category": null,
      "deprecated": false
    }
  },
  {
    "type": "Feature",
    "geometry": {
      "type": "Point",
      "coordinates": [
        -79.30895,
        43.71861
      ]
    },
    "properties": {
      "id": 180938,
      "name": null,
      "radius": 200,
      "poiType": 2,
      "chainId": null,
      "address": "100 Sunrise Ave",
      "city": "Toronto",
      "region": "ON",
      "postalCode": "M4A 1B3",
      "country": "CAN",
      "addressLabel": "100 Sunrise Ave, North York, ON M4A 1B3, Canada",
      "polygon": null,
      "polygon_json": null,
      "lat": 43.71861,
      "lon": -79.30895,
      "center_lon": null,
      "center_lat": null,
      "locationType": 2,
      "category": null,
      "deprecated": false
    }
  },
  {
    "type": "Feature",
    "geometry": {
      "type": "Point",
      "coordinates": [
        -79.4,
        43.68424
      ]
    },
    "properties": {
      "id": 180939,
      "name": null,
      "radius": 200,
      "poiType": 2,
      "chainId": null,
      "address": "155 Balmoral Ave",
      "city": "Toronto",
      "region": "ON",
      "postalCode": "M4V 1J5",
      "country": "CAN",
      "addressLabel": "155 Balmoral Ave, Toronto, ON M4V 1J5, Canada",
      "polygon": null,
      "polygon_json": null,
      "lat": 43.68424,
      "lon": -79.4,
      "center_lon": null,
      "center_lat": null,
      "locationType": 2,
      "category": null,
      "deprecated": false
    }
  },
  {
    "type": "Feature",
    "geometry": {
      "type": "Point",
      "coordinates": [
        -79.40838,
        43.6855
      ]
    },
    "properties": {
      "id": 180940,
      "name": null,
      "radius": 200,
      "poiType": 2,
      "chainId": null,
      "address": "262 St Clair Ave W",
      "city": "Toronto",
      "region": "ON",
      "postalCode": "M4V 1R8",
      "country": "CAN",
      "addressLabel": "262 St Clair Ave W, Toronto, ON M4V 1R8, Canada",
      "polygon": null,
      "polygon_json": null,
      "lat": 43.6855,
      "lon": -79.40838,
      "center_lon": null,
      "center_lat": null,
      "locationType": 2,
      "category": null,
      "deprecated": false
    }
  },
  {
    "type": "Feature",
    "geometry": {
      "type": "Point",
      "coordinates": [
        -79.40397,
        43.66949
      ]
    },
    "properties": {
      "id": 180941,
      "name": null,
      "radius": 200,
      "poiType": 2,
      "chainId": null,
      "address": "54 Madison Ave",
      "city": "Toronto",
      "region": "ON",
      "postalCode": "M5R 2S4",
      "country": "CAN",
      "addressLabel": "54 Madison Ave, Toronto, ON M5R 2S4, Canada",
      "polygon": null,
      "polygon_json": null,
      "lat": 43.66949,
      "lon": -79.40397,
      "center_lon": null,
      "center_lat": null,
      "locationType": 2,
      "category": null,
      "deprecated": false
    }
  },
  {
    "type": "Feature",
    "geometry": {
      "type": "Point",
      "coordinates": [
        -79.3913,
        43.66906
      ]
    },
    "properties": {
      "id": 180942,
      "name": null,
      "radius": 200,
      "poiType": 2,
      "chainId": null,
      "address": "101 Bloor St W",
      "city": "Toronto",
      "region": "ON",
      "postalCode": "M5S 0A1",
      "country": "CAN",
      "addressLabel": "101 Bloor St W, Toronto, ON M5S 0A1, Canada",
      "polygon": null,
      "polygon_json": null,
      "lat": 43.66906,
      "lon": -79.3913,
      "center_lon": null,
      "center_lat": null,
      "locationType": 2,
      "category": null,
      "deprecated": false
    }
  },
  {
    "type": "Feature",
    "geometry": {
      "type": "Point",
      "coordinates": [
        -79.3904,
        43.65753
      ]
    },
    "properties": {
      "id": 180943,
      "name": null,
      "radius": 200,
      "poiType": 2,
      "chainId": null,
      "address": "600 University Ave",
      "city": "Toronto",
      "region": "ON",
      "postalCode": "M5G 1X5",
      "country": "CAN",
      "addressLabel": "600 University Ave, Toronto, ON M5G 1X5, Canada",
      "polygon": null,
      "polygon_json": null,
      "lat": 43.65753,
      "lon": -79.3904,
      "center_lon": null,
      "center_lat": null,
      "locationType": 2,
      "category": null,
      "deprecated": false
    }
  },
  {
    "type": "Feature",
    "geometry": {
      "type": "Point",
      "coordinates": [
        -79.4,
        43.68424
      ]
    },
    "properties": {
      "id": 180944,
      "name": null,
      "radius": 200,
      "poiType": 2,
      "chainId": null,
      "address": "155 Balmoral Ave",
      "city": "Toronto",
      "region": "ON",
      "postalCode": "M4V 1J5",
      "country": "CAN",
      "addressLabel": "155 Balmoral Ave, Toronto, ON M4V 1J5, Canada",
      "polygon": null,
      "polygon_json": null,
      "lat": 43.68424,
      "lon": -79.4,
      "center_lon": null,
      "center_lat": null,
      "locationType": 2,
      "category": null,
      "deprecated": false
    }
  },
  {
    "type": "Feature",
    "geometry": {
      "type": "Point",
      "coordinates": [
        -79.2838359,
        43.7115805
      ]
    },
    "properties": {
      "id": 180945,
      "name": null,
      "radius": 200,
      "poiType": 2,
      "chainId": null,
      "address": "3276 St Clair Ave E",
      "city": "Toronto",
      "region": "ON",
      "postalCode": "M1L 1W1",
      "country": "CAN",
      "addressLabel": "3276 St Clair Ave E, Scarborough, ON M1L 1W1, Canada",
      "polygon": null,
      "polygon_json": null,
      "lat": 43.7115805,
      "lon": -79.2838359,
      "center_lon": null,
      "center_lat": null,
      "locationType": 2,
      "category": null,
      "deprecated": false
    }
  },
  {
    "type": "Feature",
    "geometry": {
      "type": "Point",
      "coordinates": [
        -79.33335,
        43.68543
      ]
    },
    "properties": {
      "id": 180946,
      "name": null,
      "radius": 200,
      "poiType": 2,
      "chainId": null,
      "address": "3 Springdale Blvd",
      "city": "Toronto",
      "region": "ON",
      "postalCode": "M4J 1W4",
      "country": "CAN",
      "addressLabel": "3 Springdale Blvd, East York, ON M4J 1W4, Canada",
      "polygon": null,
      "polygon_json": null,
      "lat": 43.68543,
      "lon": -79.33335,
      "center_lon": null,
      "center_lat": null,
      "locationType": 2,
      "category": null,
      "deprecated": false
    }
  },
  {
    "type": "Feature",
    "geometry": {
      "type": "Point",
      "coordinates": [
        -79.25723,
        43.6986
      ]
    },
    "properties": {
      "id": 180947,
      "name": null,
      "radius": 200,
      "poiType": 2,
      "chainId": null,
      "address": "3701 Danforth Ave",
      "city": "Toronto",
      "region": "ON",
      "postalCode": "M1N 2G2",
      "country": "CAN",
      "addressLabel": "3701 Danforth Ave, Scarborough, ON M1N 2G2, Canada",
      "polygon": null,
      "polygon_json": null,
      "lat": 43.6986,
      "lon": -79.25723,
      "center_lon": null,
      "center_lat": null,
      "locationType": 2,
      "category": null,
      "deprecated": false
    }
  },
  {
    "type": "Feature",
    "geometry": {
      "type": "Point",
      "coordinates": [
        -79.38704,
        43.63848
      ]
    },
    "properties": {
      "id": 180948,
      "name": null,
      "radius": 200,
      "poiType": 2,
      "chainId": null,
      "address": "283 Queens Quay W",
      "city": "Toronto",
      "region": "ON",
      "postalCode": "M5V 1A2",
      "country": "CAN",
      "addressLabel": "283 Queens Quay W, Toronto, ON M5V 1A2, Canada",
      "polygon": null,
      "polygon_json": null,
      "lat": 43.63848,
      "lon": -79.38704,
      "center_lon": null,
      "center_lat": null,
      "locationType": 2,
      "category": null,
      "deprecated": false
    }
  },
  {
    "type": "Feature",
    "geometry": {
      "type": "Point",
      "coordinates": [
        -79.37857,
        43.66278
      ]
    },
    "properties": {
      "id": 180949,
      "name": null,
      "radius": 200,
      "poiType": 2,
      "chainId": null,
      "address": "95 Wood St",
      "city": "Toronto",
      "region": "ON",
      "postalCode": "M4Y 2Z3",
      "country": "CAN",
      "addressLabel": "95 Wood St, Toronto, ON M4Y 2Z3, Canada",
      "polygon": null,
      "polygon_json": null,
      "lat": 43.66278,
      "lon": -79.37857,
      "center_lon": null,
      "center_lat": null,
      "locationType": 2,
      "category": null,
      "deprecated": false
    }
  },
  {
    "type": "Feature",
    "geometry": {
      "type": "Point",
      "coordinates": [
        -79.31554,
        43.6663
      ]
    },
    "properties": {
      "id": 180950,
      "name": null,
      "radius": 200,
      "poiType": 2,
      "chainId": null,
      "address": "1631 Queen St E",
      "city": "Toronto",
      "region": "ON",
      "postalCode": "M4L 1G4",
      "country": "CAN",
      "addressLabel": "1631 Queen St E, Toronto, ON M4L 1G4, Canada",
      "polygon": null,
      "polygon_json": null,
      "lat": 43.6663,
      "lon": -79.31554,
      "center_lon": null,
      "center_lat": null,
      "locationType": 2,
      "category": null,
      "deprecated": false
    }
  },
  {
    "type": "Feature",
    "geometry": {
      "type": "Point",
      "coordinates": [
        -79.37764,
        43.65365
      ]
    },
    "properties": {
      "id": 180951,
      "name": null,
      "radius": 200,
      "poiType": 2,
      "chainId": null,
      "address": "30 Bond St",
      "city": "Toronto",
      "region": "ON",
      "postalCode": "M5B 1W8",
      "country": "CAN",
      "addressLabel": "30 Bond St, Toronto, ON M5B 1W8, Canada",
      "polygon": null,
      "polygon_json": null,
      "lat": 43.65365,
      "lon": -79.37764,
      "center_lon": null,
      "center_lat": null,
      "locationType": 2,
      "category": null,
      "deprecated": false
    }
  },
  {
    "type": "Feature",
    "geometry": {
      "type": "Point",
      "coordinates": [
        -79.43169,
        43.72896
      ]
    },
    "properties": {
      "id": 180952,
      "name": null,
      "radius": 200,
      "poiType": 2,
      "chainId": null,
      "address": "3509 Bathurst St",
      "city": "Toronto",
      "region": "ON",
      "postalCode": "M6A 2C5",
      "country": "CAN",
      "addressLabel": "3509 Bathurst St, North York, ON M6A 2C5, Canada",
      "polygon": null,
      "polygon_json": null,
      "lat": 43.72896,
      "lon": -79.43169,
      "center_lon": null,
      "center_lat": null,
      "locationType": 2,
      "category": null,
      "deprecated": false
    }
  },
  {
    "type": "Feature",
    "geometry": {
      "type": "Point",
      "coordinates": [
        -79.38232,
        43.66504
      ]
    },
    "properties": {
      "id": 180953,
      "name": null,
      "radius": 200,
      "poiType": 2,
      "chainId": null,
      "address": "43 Wellesley St E",
      "city": "Toronto",
      "region": "ON",
      "postalCode": "M4Y 1H1",
      "country": "CAN",
      "addressLabel": "43 Wellesley St E, Toronto, ON M4Y 1H1, Canada",
      "polygon": null,
      "polygon_json": null,
      "lat": 43.66504,
      "lon": -79.38232,
      "center_lon": null,
      "center_lat": null,
      "locationType": 2,
      "category": null,
      "deprecated": false
    }
  },
  {
    "type": "Feature",
    "geometry": {
      "type": "Point",
      "coordinates": [
        -75.63,
        37.76
      ]
    },
    "properties": {
      "id": 191328,
      "name": "test after change",
      "radius": 200,
      "poiType": 2,
      "chainId": null,
      "address": "23421",
      "city": "Parksley",
      "region": "Virginia",
      "postalCode": null,
      "country": "United States",
      "addressLabel": "Parksley, Virginia 23421, United States",
      "polygon": null,
      "polygon_json": null,
      "lat": 37.76,
      "lon": -75.63,
      "center_lon": null,
      "center_lat": null,
      "locationType": 2,
      "category": 2,
      "deprecated": false
    }
  },
  {
    "type": "Feature",
    "geometry": {
      "type": "Point",
      "coordinates": [
        -75.87833,
        37.55278
      ]
    },
    "properties": {
      "id": 191329,
      "name": "test for nul;",
      "radius": 200,
      "poiType": 2,
      "chainId": null,
      "address": "23345",
      "city": "Davis Wharf",
      "region": "Virginia",
      "postalCode": null,
      "country": "United States",
      "addressLabel": "Davis Wharf, Virginia 23345, United States",
      "polygon": null,
      "polygon_json": null,
      "lat": 37.55278,
      "lon": -75.87833,
      "center_lon": null,
      "center_lat": null,
      "locationType": 2,
      "category": 1,
      "deprecated": false
    }
  },
  {
    "type": "Feature",
    "geometry": {
      "type": "Point",
      "coordinates": [
        -79.389643,
        43.670888
      ]
    },
    "properties": {
      "id": 191330,
      "name": "test for null 2",
      "radius": 200,
      "poiType": 2,
      "chainId": null,
      "address": "1235 Bay Street",
      "city": "Toronto",
      "region": "ON",
      "postalCode": "M5R 2A9",
      "country": "CA",
      "addressLabel": "1235 Bay Street, Toronto, Ontario M5R 2A9, Canada",
      "polygon": null,
      "polygon_json": null,
      "lat": 43.670888,
      "lon": -79.389643,
      "center_lon": null,
      "center_lat": null,
      "locationType": 2,
      "category": 1,
      "deprecated": false
    }
  },
  {
    "type": "Feature",
    "geometry": {
      "type": "Point",
      "coordinates": [
        -84.29535,
        33.77554
      ]
    },
    "properties": {
      "id": 191331,
      "name": "try to find a unit number",
      "radius": 200,
      "poiType": 2,
      "chainId": null,
      "address": "No. 246",
      "city": "Decatur",
      "region": "Georgia",
      "postalCode": "30030",
      "country": "United States",
      "addressLabel": "No. 246, 129 E Ponce de Leon Ave, Decatur, Georgia 30030, United States",
      "polygon": null,
      "polygon_json": null,
      "lat": 33.77554,
      "lon": -84.29535,
      "center_lon": null,
      "center_lat": null,
      "locationType": 2,
      "category": 2,
      "deprecated": false
    }
  },
  {
    "type": "Feature",
    "geometry": {
      "type": "Point",
      "coordinates": [
        -79.389643,
        43.670888
      ]
    },
    "properties": {
      "id": 191332,
      "name": "test to find a unit number 2",
      "radius": 200,
      "poiType": 2,
      "chainId": null,
      "address": "1235 Bay Street",
      "city": "Toronto",
      "region": "ON",
      "postalCode": "M5R 2A9",
      "country": "CA",
      "addressLabel": "1235 Bay Street, Toronto, Ontario M5R 2A9, Canada",
      "polygon": null,
      "polygon_json": null,
      "lat": 43.670888,
      "lon": -79.389643,
      "center_lon": null,
      "center_lat": null,
      "locationType": 2,
      "category": 2,
      "deprecated": false
    }
  },
  {
    "type": "Feature",
    "geometry": {
      "type": "Point",
      "coordinates": [
        -79.389622,
        43.670797
      ]
    },
    "properties": {
      "id": 192824,
      "name": "test 2",
      "radius": 200,
      "poiType": 2,
      "chainId": null,
      "address": "1233 Bay Street",
      "city": "Etobicoke",
      "region": "ON",
      "postalCode": "M5R 2A9",
      "country": "CA",
      "addressLabel": "1233 Bay Street, Etobicoke, Ontario M5R 2A9, Canada",
      "polygon": null,
      "polygon_json": null,
      "lat": 43.670797,
      "lon": -79.389622,
      "center_lon": null,
      "center_lat": null,
      "locationType": 2,
      "category": 1,
      "deprecated": false
    }
  },
  {
    "type": "Feature",
    "geometry": {
      "type": "Point",
      "coordinates": [
        -79.389622,
        43.670797
      ]
    },
    "properties": {
      "id": 192825,
      "name": "test 3",
      "radius": 200,
      "poiType": 2,
      "chainId": null,
      "address": "1233 Bay Street",
      "city": "Toronto",
      "region": "ON",
      "postalCode": "M5R 2A9",
      "country": "CA",
      "addressLabel": "1233 Bay Street, Toronto, Ontario M5R 2A9, Canada",
      "polygon": null,
      "polygon_json": null,
      "lat": 43.670797,
      "lon": -79.389622,
      "center_lon": null,
      "center_lat": null,
      "locationType": 2,
      "category": 1,
      "deprecated": false
    }
  },
  {
    "type": "Feature",
    "geometry": {
      "type": "Point",
      "coordinates": [
        -79.389622,
        43.670797
      ]
    },
    "properties": {
      "id": 192826,
      "name": "test 4",
      "radius": 200,
      "poiType": 2,
      "chainId": null,
      "address": "1233 Bay Street",
      "city": "Toronto",
      "region": "ON",
      "postalCode": "M5R 2A9",
      "country": "CA",
      "addressLabel": "1233 Bay Street, Toronto, Ontario M5R 2A9, Canada",
      "polygon": null,
      "polygon_json": null,
      "lat": 43.670797,
      "lon": -79.389622,
      "center_lon": null,
      "center_lat": null,
      "locationType": 2,
      "category": 1,
      "deprecated": false
    }
  },
  {
    "type": "Feature",
    "geometry": {
      "type": "Point",
      "coordinates": [
        -122.26604,
        49.02802
      ]
    },
    "properties": {
      "id": 208128,
      "name": "AB",
      "radius": 200,
      "poiType": 2,
      "chainId": null,
      "address": "1425 Sumas Way",
      "city": "Abbotsford",
      "region": "BC",
      "postalCode": "V2S 8M9",
      "country": "CAN",
      "addressLabel": "1425 Sumas Way, Abbotsford, BC V2S 8M9, Canada",
      "polygon": null,
      "polygon_json": null,
      "lat": 49.02802,
      "lon": -122.26604,
      "center_lon": null,
      "center_lat": null,
      "locationType": 2,
      "category": 3,
      "deprecated": false
    }
  },
  {
    "type": "Feature",
    "geometry": {
      "type": "Point",
      "coordinates": [
        -73.5925702,
        45.6121539
      ]
    },
    "properties": {
      "id": 208129,
      "name": "AN",
      "radius": 200,
      "poiType": 2,
      "chainId": null,
      "address": "11201 Rue Renaude-Lapointe",
      "city": "Montral",
      "region": "QC",
      "postalCode": "H1J 2T4",
      "country": "CAN",
      "addressLabel": "11201 Rue Renaude-Lapointe, Anjou, QC H1J 2T4, Canada",
      "polygon": null,
      "polygon_json": null,
      "lat": 45.6121539,
      "lon": -73.5925702,
      "center_lon": null,
      "center_lat": null,
      "locationType": 2,
      "category": 3,
      "deprecated": false
    }
  },
  {
    "type": "Feature",
    "geometry": {
      "type": "Point",
      "coordinates": [
        151.154604,
        -33.1046932
      ]
    },
    "properties": {
      "id": 208130,
      "name": "BA",
      "radius": 200,
      "poiType": 2,
      "chainId": null,
      "address": "81 Byrne Dr",
      "city": "Bucketty",
      "region": "NSW",
      "postalCode": "2250",
      "country": "AUS",
      "addressLabel": "81 Byrne Dr, Bucketty NSW 2250, Australia",
      "polygon": null,
      "polygon_json": null,
      "lat": -33.1046932,
      "lon": 151.154604,
      "center_lon": null,
      "center_lat": null,
      "locationType": 2,
      "category": 3,
      "deprecated": false
    }
  },
  {
    "type": "Feature",
    "geometry": {
      "type": "Point",
      "coordinates": [
        -79.80017,
        43.69914
      ]
    },
    "properties": {
      "id": 208131,
      "name": "BR",
      "radius": 200,
      "poiType": 2,
      "chainId": null,
      "address": "10081 McLaughlin Rd N",
      "city": "Brampton",
      "region": "ON",
      "postalCode": "L7A 2X5",
      "country": "CAN",
      "addressLabel": "10081 McLaughlin Rd N, Brampton, ON L7A 2X5, Canada",
      "polygon": null,
      "polygon_json": null,
      "lat": 43.69914,
      "lon": -79.80017,
      "center_lon": null,
      "center_lat": null,
      "locationType": 2,
      "category": 3,
      "deprecated": false
    }
  },
  {
    "type": "Feature",
    "geometry": {
      "type": "Point",
      "coordinates": [
        -79.721,
        43.67517
      ]
    },
    "properties": {
      "id": 208132,
      "name": "OG",
      "radius": 200,
      "poiType": 2,
      "chainId": null,
      "address": "535 Steeles Ave E",
      "city": "Brampton",
      "region": "ON",
      "postalCode": "L6W 4S2",
      "country": "CAN",
      "addressLabel": "535 Steeles Ave E, Brampton, ON L6W 4S2, Canada",
      "polygon": null,
      "polygon_json": null,
      "lat": 43.67517,
      "lon": -79.721,
      "center_lon": null,
      "center_lat": null,
      "locationType": 2,
      "category": 3,
      "deprecated": false
    }
  },
  {
    "type": "Feature",
    "geometry": {
      "type": "Point",
      "coordinates": [
        -90.3820149,
        41.1935756
      ]
    },
    "properties": {
      "id": 208133,
      "name": "BF",
      "radius": 200,
      "poiType": 2,
      "chainId": null,
      "address": "218 B St",
      "city": "Alpha",
      "region": "IL",
      "postalCode": "61413",
      "country": "USA",
      "addressLabel": "218 B St, Alpha, IL 61413, United States",
      "polygon": null,
      "polygon_json": null,
      "lat": 41.1935756,
      "lon": -90.3820149,
      "center_lon": null,
      "center_lat": null,
      "locationType": 2,
      "category": 3,
      "deprecated": false
    }
  },
  {
    "type": "Feature",
    "geometry": {
      "type": "Point",
      "coordinates": [
        -79.7998,
        43.3579
      ]
    },
    "properties": {
      "id": 208134,
      "name": "BU",
      "radius": 200,
      "poiType": 2,
      "chainId": null,
      "address": "3167 N Service Rd",
      "city": "Burlington",
      "region": "ON",
      "postalCode": "L7N 3G2",
      "country": "CAN",
      "addressLabel": "3167 N Service Rd, Burlington, ON L7N 3G2, Canada",
      "polygon": null,
      "polygon_json": null,
      "lat": 43.3579,
      "lon": -79.7998,
      "center_lon": null,
      "center_lat": null,
      "locationType": 2,
      "category": 3,
      "deprecated": false
    }
  },
  {
    "type": "Feature",
    "geometry": {
      "type": "Point",
      "coordinates": [
        -96.48288,
        41.43914
      ]
    },
    "properties": {
      "id": 208135,
      "name": "CA",
      "radius": 200,
      "poiType": 2,
      "chainId": null,
      "address": "None E 11th St",
      "city": "Fremont",
      "region": "NE",
      "postalCode": "68025",
      "country": "USA",
      "addressLabel": "E 11th St, Fremont, NE 68025, United States",
      "polygon": null,
      "polygon_json": null,
      "lat": 41.43914,
      "lon": -96.48288,
      "center_lon": null,
      "center_lat": null,
      "locationType": 2,
      "category": 3,
      "deprecated": false
    }
  },
  {
    "type": "Feature",
    "geometry": {
      "type": "Point",
      "coordinates": [
        -79.54345,
        43.82179
      ]
    },
    "properties": {
      "id": 208136,
      "name": "VN",
      "radius": 200,
      "poiType": 2,
      "chainId": null,
      "address": "299 Bass Pro Mills Dr",
      "city": "Vaughan",
      "region": "ON",
      "postalCode": "L4K 5Z6",
      "country": "CAN",
      "addressLabel": "299 Bass Pro Mills Dr, Concord, ON L4K 5Z6, Canada",
      "polygon": null,
      "polygon_json": null,
      "lat": 43.82179,
      "lon": -79.54345,
      "center_lon": null,
      "center_lat": null,
      "locationType": 2,
      "category": 3,
      "deprecated": false
    }
  },
  {
    "type": "Feature",
    "geometry": {
      "type": "Point",
      "coordinates": [
        -63.58674,
        44.71493
      ]
    },
    "properties": {
      "id": 208137,
      "name": "NS",
      "radius": 200,
      "poiType": 2,
      "chainId": null,
      "address": "140 Akerley Blvd",
      "city": "Halifax",
      "region": "NS",
      "postalCode": "B3B 2E4",
      "country": "CAN",
      "addressLabel": "140 Akerley Blvd, Dartmouth, NS B3B 2E4, Canada",
      "polygon": null,
      "polygon_json": null,
      "lat": 44.71493,
      "lon": -63.58674,
      "center_lon": null,
      "center_lat": null,
      "locationType": 2,
      "category": 3,
      "deprecated": false
    }
  },
  {
    "type": "Feature",
    "geometry": {
      "type": "Point",
      "coordinates": [
        -73.78701,
        45.48007
      ]
    },
    "properties": {
      "id": 208138,
      "name": "DV",
      "radius": 200,
      "poiType": 2,
      "chainId": null,
      "address": "2222 Place Transcanadienne",
      "city": "Dorval",
      "region": "QC",
      "postalCode": "H9P 2X5",
      "country": "CAN",
      "addressLabel": "2222 Place Transcanadienne, Dorval, QC H9P 2X5, Canada",
      "polygon": null,
      "polygon_json": null,
      "lat": 45.48007,
      "lon": -73.78701,
      "center_lon": null,
      "center_lat": null,
      "locationType": 2,
      "category": 3,
      "deprecated": false
    }
  },
  {
    "type": "Feature",
    "geometry": {
      "type": "Point",
      "coordinates": [
        -113.41648,
        53.48873
      ]
    },
    "properties": {
      "id": 208139,
      "name": "SD",
      "radius": 200,
      "poiType": 2,
      "chainId": null,
      "address": "4939 52 Ave NW",
      "city": "Edmonton",
      "region": "AB",
      "postalCode": "T6B 3L5",
      "country": "CAN",
      "addressLabel": "4939 52 Ave NW, Edmonton, AB T6B 3L5, Canada",
      "polygon": null,
      "polygon_json": null,
      "lat": 53.48873,
      "lon": -113.41648,
      "center_lon": null,
      "center_lat": null,
      "locationType": 2,
      "category": 3,
      "deprecated": false
    }
  },
  {
    "type": "Feature",
    "geometry": {
      "type": "Point",
      "coordinates": [
        -79.5593395,
        43.614206
      ]
    },
    "properties": {
      "id": 208140,
      "name": "TS",
      "radius": 200,
      "poiType": 2,
      "chainId": null,
      "address": "1860 The Queensway",
      "city": "Toronto",
      "region": "ON",
      "postalCode": "M9C 5H5",
      "country": "CAN",
      "addressLabel": "1860 The Queensway, Etobicoke, ON M9C 5H5, Canada",
      "polygon": null,
      "polygon_json": null,
      "lat": 43.614206,
      "lon": -79.5593395,
      "center_lon": null,
      "center_lat": null,
      "locationType": 2,
      "category": 3,
      "deprecated": false
    }
  },
  {
    "type": "Feature",
    "geometry": {
      "type": "Point",
      "coordinates": [
        -80.2800712,
        43.5398918
      ]
    },
    "properties": {
      "id": 208141,
      "name": "GU",
      "radius": 200,
      "poiType": 2,
      "chainId": null,
      "address": "121 Silvercreek Pkwy N",
      "city": "Guelph",
      "region": "ON",
      "postalCode": "N1H 3T3",
      "country": "CAN",
      "addressLabel": "121 Silvercreek Pkwy N, Guelph, ON N1H 3T3, Canada",
      "polygon": null,
      "polygon_json": null,
      "lat": 43.5398918,
      "lon": -80.2800712,
      "center_lon": null,
      "center_lat": null,
      "locationType": 2,
      "category": 3,
      "deprecated": false
    }
  },
  {
    "type": "Feature",
    "geometry": {
      "type": "Point",
      "coordinates": [
        -79.81959,
        43.19506
      ]
    },
    "properties": {
      "id": 208142,
      "name": "HM",
      "radius": 200,
      "poiType": 2,
      "chainId": null,
      "address": "1599 Stone Church Rd E",
      "city": "Hamilton",
      "region": "ON",
      "postalCode": "L8W 3P8",
      "country": "CAN",
      "addressLabel": "1599 Stone Church Rd E, Hamilton, ON L8W 3P8, Canada",
      "polygon": null,
      "polygon_json": null,
      "lat": 43.19506,
      "lon": -79.81959,
      "center_lon": null,
      "center_lat": null,
      "locationType": 2,
      "category": 3,
      "deprecated": false
    }
  },
  {
    "type": "Feature",
    "geometry": {
      "type": "Point",
      "coordinates": [
        -80.7756863,
        43.1491806
      ]
    },
    "properties": {
      "id": 208143,
      "name": "KT",
      "radius": 200,
      "poiType": 2,
      "chainId": null,
      "address": "286 Fairway Rd",
      "city": "Woodstock",
      "region": "ON",
      "postalCode": "N4T 0A4",
      "country": "CAN",
      "addressLabel": "286 Fairway Rd, Woodstock, ON N4T 0A4, Canada",
      "polygon": null,
      "polygon_json": null,
      "lat": 43.1491806,
      "lon": -80.7756863,
      "center_lon": null,
      "center_lat": null,
      "locationType": 2,
      "category": 3,
      "deprecated": false
    }
  },
  {
    "type": "Feature",
    "geometry": {
      "type": "Point",
      "coordinates": [
        -122.6680943,
        49.1135377
      ]
    },
    "properties": {
      "id": 208144,
      "name": "LL",
      "radius": 200,
      "poiType": 2,
      "chainId": null,
      "address": "20015 Langley Byp",
      "city": "Langley",
      "region": "BC",
      "postalCode": "V3A",
      "country": "CAN",
      "addressLabel": "20015 Langley Byp, Langley, BC V3A, Canada",
      "polygon": null,
      "polygon_json": null,
      "lat": 49.1135377,
      "lon": -122.6680943,
      "center_lon": null,
      "center_lat": null,
      "locationType": 2,
      "category": 3,
      "deprecated": false
    }
  },
  {
    "type": "Feature",
    "geometry": {
      "type": "Point",
      "coordinates": [
        -73.7489777,
        45.5612443
      ]
    },
    "properties": {
      "id": 208145,
      "name": "LA",
      "radius": 200,
      "poiType": 2,
      "chainId": null,
      "address": "2000 Boulevard Daniel-Johnson",
      "city": "Laval",
      "region": "QC",
      "postalCode": "H7T 1A3",
      "country": "CAN",
      "addressLabel": "2000 Boulevard Daniel-Johnson, Laval, QC H7T 1A3, Canada",
      "polygon": null,
      "polygon_json": null,
      "lat": 45.5612443,
      "lon": -73.7489777,
      "center_lon": null,
      "center_lat": null,
      "locationType": 2,
      "category": 3,
      "deprecated": false
    }
  },
  {
    "type": "Feature",
    "geometry": {
      "type": "Point",
      "coordinates": [
        -79.69078,
        43.51558
      ]
    },
    "properties": {
      "id": 208146,
      "name": "EM",
      "radius": 200,
      "poiType": 2,
      "chainId": null,
      "address": "3050 Vega Blvd",
      "city": "Mississauga",
      "region": "ON",
      "postalCode": "L5L 5X8",
      "country": "CAN",
      "addressLabel": "3050 Vega Blvd, Mississauga, ON L5L 5X8, Canada",
      "polygon": null,
      "polygon_json": null,
      "lat": 43.51558,
      "lon": -79.69078,
      "center_lon": null,
      "center_lat": null,
      "locationType": 2,
      "category": 3,
      "deprecated": false
    }
  },
  {
    "type": "Feature",
    "geometry": {
      "type": "Point",
      "coordinates": [
        -81.70235,
        43.74001
      ]
    },
    "properties": {
      "id": 208147,
      "name": "MI",
      "radius": 200,
      "poiType": 2,
      "chainId": null,
      "address": "201 Britannia Rd E",
      "city": "Goderich",
      "region": "ON",
      "postalCode": "N7A 1J1",
      "country": "CAN",
      "addressLabel": "201 Britannia Rd E, Goderich, ON N7A 1J1, Canada",
      "polygon": null,
      "polygon_json": null,
      "lat": 43.74001,
      "lon": -81.70235,
      "center_lon": null,
      "center_lat": null,
      "locationType": 2,
      "category": 3,
      "deprecated": false
    }
  },
  {
    "type": "Feature",
    "geometry": {
      "type": "Point",
      "coordinates": [
        -79.56774,
        43.62342
      ]
    },
    "properties": {
      "id": 208148,
      "name": "ET",
      "radius": 200,
      "poiType": 2,
      "chainId": null,
      "address": "2070 Dundas St E",
      "city": "Mississauga",
      "region": "ON",
      "postalCode": "L4X 1L9",
      "country": "CAN",
      "addressLabel": "2070 Dundas St E, Mississauga, ON L4X 1L9, Canada",
      "polygon": null,
      "polygon_json": null,
      "lat": 43.62342,
      "lon": -79.56774,
      "center_lon": null,
      "center_lat": null,
      "locationType": 2,
      "category": 3,
      "deprecated": false
    }
  },
  {
    "type": "Feature",
    "geometry": {
      "type": "Point",
      "coordinates": [
        -79.42516,
        44.06878
      ]
    },
    "properties": {
      "id": 208149,
      "name": "NW",
      "radius": 200,
      "poiType": 2,
      "chainId": null,
      "address": "25 Harry Walker Pkwy N",
      "city": "Newmarket",
      "region": "ON",
      "postalCode": "L3Y 7B3",
      "country": "CAN",
      "addressLabel": "25 Harry Walker Pkwy N, Newmarket, ON L3Y 7B3, Canada",
      "polygon": null,
      "polygon_json": null,
      "lat": 44.06878,
      "lon": -79.42516,
      "center_lon": null,
      "center_lat": null,
      "locationType": 2,
      "category": 3,
      "deprecated": false
    }
  },
  {
    "type": "Feature",
    "geometry": {
      "type": "Point",
      "coordinates": [
        -99.8141051,
        32.2639893
      ]
    },
    "properties": {
      "id": 208150,
      "name": "NL",
      "radius": 200,
      "poiType": 2,
      "chainId": null,
      "address": "440 Ranch Rd",
      "city": "Tuscola",
      "region": "TX",
      "postalCode": "79562",
      "country": "USA",
      "addressLabel": "440 Ranch Rd, Tuscola, TX 79562, United States",
      "polygon": null,
      "polygon_json": null,
      "lat": 32.2639893,
      "lon": -99.8141051,
      "center_lon": null,
      "center_lat": null,
      "locationType": 2,
      "category": 3,
      "deprecated": false
    }
  },
  {
    "type": "Feature",
    "geometry": {
      "type": "Point",
      "coordinates": [
        -66.0669339,
        45.280033
      ]
    },
    "properties": {
      "id": 208151,
      "name": "OV",
      "radius": 200,
      "poiType": 2,
      "chainId": null,
      "address": "95 1st St",
      "city": "Saint John",
      "region": "NB",
      "postalCode": "E2K",
      "country": "CAN",
      "addressLabel": "95 1st St, Saint John, NB E2K, Canada",
      "polygon": null,
      "polygon_json": null,
      "lat": 45.280033,
      "lon": -66.0669339,
      "center_lon": null,
      "center_lat": null,
      "locationType": 2,
      "category": 3,
      "deprecated": false
    }
  },
  {
    "type": "Feature",
    "geometry": {
      "type": "Point",
      "coordinates": [
        -75.78332,
        45.35422
      ]
    },
    "properties": {
      "id": 208152,
      "name": "TT",
      "radius": 200,
      "poiType": 2,
      "chainId": null,
      "address": "2600 Queensview Dr",
      "city": "Ottawa",
      "region": "ON",
      "postalCode": "K2B 8H6",
      "country": "CAN",
      "addressLabel": "2600 Queensview Dr, Ottawa, ON K2B 8H6, Canada",
      "polygon": null,
      "polygon_json": null,
      "lat": 45.35422,
      "lon": -75.78332,
      "center_lon": null,
      "center_lat": null,
      "locationType": 2,
      "category": 3,
      "deprecated": false
    }
  },
  {
    "type": "Feature",
    "geometry": {
      "type": "Point",
      "coordinates": [
        -75.64183,
        45.37977
      ]
    },
    "properties": {
      "id": 208153,
      "name": "OT",
      "radius": 200,
      "poiType": 2,
      "chainId": null,
      "address": "1718 Heron Rd",
      "city": "Ottawa",
      "region": "ON",
      "postalCode": "K1V 6A1",
      "country": "CAN",
      "addressLabel": "1718 Heron Rd, Ottawa, ON K1V 6A1, Canada",
      "polygon": null,
      "polygon_json": null,
      "lat": 45.37977,
      "lon": -75.64183,
      "center_lon": null,
      "center_lat": null,
      "locationType": 2,
      "category": 3,
      "deprecated": false
    }
  },
  {
    "type": "Feature",
    "geometry": {
      "type": "Point",
      "coordinates": [
        -133.74157,
        68.36347
      ]
    },
    "properties": {
      "id": 208154,
      "name": "RD",
      "radius": 200,
      "poiType": 2,
      "chainId": null,
      "address": "10 MacKenzie Rd",
      "city": "Inuvik",
      "region": "NT",
      "postalCode": "X0E",
      "country": "CAN",
      "addressLabel": "10 MacKenzie Rd, Inuvik, NT X0E, Canada",
      "polygon": null,
      "polygon_json": null,
      "lat": 68.36347,
      "lon": -133.74157,
      "center_lon": null,
      "center_lat": null,
      "locationType": 2,
      "category": 3,
      "deprecated": false
    }
  },
  {
    "type": "Feature",
    "geometry": {
      "type": "Point",
      "coordinates": [
        -104.5830563,
        50.4746548
      ]
    },
    "properties": {
      "id": 208155,
      "name": "RG",
      "radius": 200,
      "poiType": 2,
      "chainId": null,
      "address": "390 Hoffer Dr",
      "city": "Regina",
      "region": "SK",
      "postalCode": "S4N 7A1",
      "country": "CAN",
      "addressLabel": "390 Hoffer Dr, Regina, SK S4N 7A1, Canada",
      "polygon": null,
      "polygon_json": null,
      "lat": 50.4746548,
      "lon": -104.5830563,
      "center_lon": null,
      "center_lat": null,
      "locationType": 2,
      "category": 3,
      "deprecated": false
    }
  },
  {
    "type": "Feature",
    "geometry": {
      "type": "Point",
      "coordinates": [
        -123.08326,
        49.19358
      ]
    },
    "properties": {
      "id": 208156,
      "name": "RI",
      "radius": 200,
      "poiType": 2,
      "chainId": null,
      "address": "2633 Sweden Way",
      "city": "Richmond",
      "region": "BC",
      "postalCode": "V6V 2Z6",
      "country": "CAN",
      "addressLabel": "2633 Sweden Way, Richmond, BC V6V 2Z6, Canada",
      "polygon": null,
      "polygon_json": null,
      "lat": 49.19358,
      "lon": -123.08326,
      "center_lon": null,
      "center_lat": null,
      "locationType": 2,
      "category": 3,
      "deprecated": false
    }
  },
  {
    "type": "Feature",
    "geometry": {
      "type": "Point",
      "coordinates": [
        -79.44138,
        43.89221
      ]
    },
    "properties": {
      "id": 208157,
      "name": "RH",
      "radius": 200,
      "poiType": 2,
      "chainId": null,
      "address": "10875 Yonge St",
      "city": "Richmond Hill",
      "region": "ON",
      "postalCode": "L4C 3E3",
      "country": "CAN",
      "addressLabel": "10875 Yonge St, Richmond Hill, ON L4C 3E3, Canada",
      "polygon": null,
      "polygon_json": null,
      "lat": 43.89221,
      "lon": -79.44138,
      "center_lon": null,
      "center_lat": null,
      "locationType": 2,
      "category": 3,
      "deprecated": false
    }
  },
  {
    "type": "Feature",
    "geometry": {
      "type": "Point",
      "coordinates": [
        -73.809797,
        45.6285109
      ]
    },
    "properties": {
      "id": 208158,
      "name": "RM",
      "radius": 200,
      "poiType": 2,
      "chainId": null,
      "address": "307 Boulevard Labelle",
      "city": "Rosemre",
      "region": "QC",
      "postalCode": "J7A 2H7",
      "country": "CAN",
      "addressLabel": "307 Boulevard Labelle, Rosemere, QC J7A 2H7, Canada",
      "polygon": null,
      "polygon_json": null,
      "lat": 45.6285109,
      "lon": -73.809797,
      "center_lon": null,
      "center_lat": null,
      "locationType": 2,
      "category": 3,
      "deprecated": false
    }
  },
  {
    "type": "Feature",
    "geometry": {
      "type": "Point",
      "coordinates": [
        -73.38333,
        45.485
      ]
    },
    "properties": {
      "id": 208159,
      "name": "LG",
      "radius": 200,
      "poiType": 2,
      "chainId": null,
      "address": "1909 Rue F-X-Sabourin",
      "city": "Longueuil",
      "region": "QC",
      "postalCode": "J3Z",
      "country": "CAN",
      "addressLabel": "1909 Rue F-X-Sabourin, Longueuil, QC J3Z, Canada",
      "polygon": null,
      "polygon_json": null,
      "lat": 45.485,
      "lon": -73.38333,
      "center_lon": null,
      "center_lat": null,
      "locationType": 2,
      "category": 3,
      "deprecated": false
    }
  },
  {
    "type": "Feature",
    "geometry": {
      "type": "Point",
      "coordinates": [
        -82.3506684,
        42.9861261
      ]
    },
    "properties": {
      "id": 208160,
      "name": "SR",
      "radius": 200,
      "poiType": 2,
      "chainId": null,
      "address": "1000 Barclay Dr",
      "city": "Sarnia",
      "region": "ON",
      "postalCode": "N7S 6M6",
      "country": "CAN",
      "addressLabel": "1000 Barclay Dr, Sarnia, ON N7S 6M6, Canada",
      "polygon": null,
      "polygon_json": null,
      "lat": 42.9861261,
      "lon": -82.3506684,
      "center_lon": null,
      "center_lat": null,
      "locationType": 2,
      "category": 3,
      "deprecated": false
    }
  },
  {
    "type": "Feature",
    "geometry": {
      "type": "Point",
      "coordinates": [
        -106.68417,
        52.15384
      ]
    },
    "properties": {
      "id": 208161,
      "name": "SA",
      "radius": 200,
      "poiType": 2,
      "chainId": null,
      "address": "126 Cardinal Cres",
      "city": "Saskatoon",
      "region": "SK",
      "postalCode": "S7L 6H6",
      "country": "CAN",
      "addressLabel": "126 Cardinal Cres, Saskatoon, SK S7L 6H6, Canada",
      "polygon": null,
      "polygon_json": null,
      "lat": 52.15384,
      "lon": -106.68417,
      "center_lon": null,
      "center_lat": null,
      "locationType": 2,
      "category": 3,
      "deprecated": false
    }
  },
  {
    "type": "Feature",
    "geometry": {
      "type": "Point",
      "coordinates": [
        -84.3167935,
        46.5386545
      ]
    },
    "properties": {
      "id": 208162,
      "name": "SM",
      "radius": 200,
      "poiType": 2,
      "chainId": null,
      "address": "682 2nd Line E",
      "city": "Sault Ste Marie",
      "region": "ON",
      "postalCode": "P6B",
      "country": "CAN",
      "addressLabel": "682 2nd Line E, Sault Ste Marie, ON P6B, Canada",
      "polygon": null,
      "polygon_json": null,
      "lat": 46.5386545,
      "lon": -84.3167935,
      "center_lon": null,
      "center_lat": null,
      "locationType": 2,
      "category": 3,
      "deprecated": false
    }
  },
  {
    "type": "Feature",
    "geometry": {
      "type": "Point",
      "coordinates": [
        -79.2386794,
        43.7992594
      ]
    },
    "properties": {
      "id": 208163,
      "name": "SC",
      "radius": 200,
      "poiType": 2,
      "chainId": null,
      "address": "20 McLevin Ave",
      "city": "Toronto",
      "region": "ON",
      "postalCode": "M1B 2V5",
      "country": "CAN",
      "addressLabel": "20 McLevin Ave, Scarborough, ON M1B 2V5, Canada",
      "polygon": null,
      "polygon_json": null,
      "lat": 43.7992594,
      "lon": -79.2386794,
      "center_lon": null,
      "center_lat": null,
      "locationType": 2,
      "category": 3,
      "deprecated": false
    }
  },
  {
    "type": "Feature",
    "geometry": {
      "type": "Point",
      "coordinates": [
        -71.96679,
        45.42079
      ]
    },
    "properties": {
      "id": 208164,
      "name": "SB",
      "radius": 200,
      "poiType": 2,
      "chainId": null,
      "address": "1455 Boulevard du Plateau-St-Joseph",
      "city": "Sherbrooke",
      "region": "QC",
      "postalCode": "J1L 3E2",
      "country": "CAN",
      "addressLabel": "1455 Boulevard du Plateau-St-Joseph, Sherbrooke, QC J1L 3E2, Canada",
      "polygon": null,
      "polygon_json": null,
      "lat": 45.42079,
      "lon": -71.96679,
      "center_lon": null,
      "center_lat": null,
      "locationType": 2,
      "category": 3,
      "deprecated": false
    }
  },
  {
    "type": "Feature",
    "geometry": {
      "type": "Point",
      "coordinates": [
        -71.31926,
        46.79545
      ]
    },
    "properties": {
      "id": 208165,
      "name": "QY",
      "radius": 200,
      "poiType": 2,
      "chainId": null,
      "address": "2840 Rue Einstein",
      "city": "Qubec",
      "region": "QC",
      "postalCode": "G1X 5H3",
      "country": "CAN",
      "addressLabel": "2840 Rue Einstein, Qubec, QC G1X 5H3, Canada",
      "polygon": null,
      "polygon_json": null,
      "lat": 46.79545,
      "lon": -71.31926,
      "center_lon": null,
      "center_lat": null,
      "locationType": 2,
      "category": 3,
      "deprecated": false
    }
  },
  {
    "type": "Feature",
    "geometry": {
      "type": "Point",
      "coordinates": [
        -97.1651264,
        49.9034973
      ]
    },
    "properties": {
      "id": 208166,
      "name": "SU",
      "radius": 200,
      "poiType": 2,
      "chainId": null,
      "address": "817 Notre Dame Ave",
      "city": "Winnipeg",
      "region": "MB",
      "postalCode": "R3E 0M4",
      "country": "CAN",
      "addressLabel": "817 Notre Dame Ave, Winnipeg, MB R3E 0M4, Canada",
      "polygon": null,
      "polygon_json": null,
      "lat": 49.9034973,
      "lon": -97.1651264,
      "center_lon": null,
      "center_lat": null,
      "locationType": 2,
      "category": 3,
      "deprecated": false
    }
  },
  {
    "type": "Feature",
    "geometry": {
      "type": "Point",
      "coordinates": [
        -89.2398782,
        48.4084482
      ]
    },
    "properties": {
      "id": 208167,
      "name": "TB",
      "radius": 200,
      "poiType": 2,
      "chainId": null,
      "address": "799 Fort William Rd",
      "city": "Thunder Bay",
      "region": "ON",
      "postalCode": "P7B 3A2",
      "country": "CAN",
      "addressLabel": "799 Fort William Rd, Thunder Bay, ON P7B 3A2, Canada",
      "polygon": null,
      "polygon_json": null,
      "lat": 48.4084482,
      "lon": -89.2398782,
      "center_lon": null,
      "center_lat": null,
      "locationType": 2,
      "category": 3,
      "deprecated": false
    }
  },
  {
    "type": "Feature",
    "geometry": {
      "type": "Point",
      "coordinates": [
        -79.29453,
        43.69005
      ]
    },
    "properties": {
      "id": 208168,
      "name": "DF",
      "radius": 200,
      "poiType": 2,
      "chainId": null,
      "address": "2872 Danforth Ave",
      "city": "Toronto",
      "region": "ON",
      "postalCode": "M4C 1M1",
      "country": "CAN",
      "addressLabel": "2872 Danforth Ave, Toronto, ON M4C 1M1, Canada",
      "polygon": null,
      "polygon_json": null,
      "lat": 43.69005,
      "lon": -79.29453,
      "center_lon": null,
      "center_lat": null,
      "locationType": 2,
      "category": 3,
      "deprecated": false
    }
  },
  {
    "type": "Feature",
    "geometry": {
      "type": "Point",
      "coordinates": [
        -123.36861,
        48.44835
      ]
    },
    "properties": {
      "id": 208169,
      "name": "VT",
      "radius": 200,
      "poiType": 2,
      "chainId": null,
      "address": "800 Tolmie Ave",
      "city": "Saanich",
      "region": "BC",
      "postalCode": "V8X 3W4",
      "country": "CAN",
      "addressLabel": "800 Tolmie Ave, Victoria, BC V8X 3W4, Canada",
      "polygon": null,
      "polygon_json": null,
      "lat": 48.44835,
      "lon": -123.36861,
      "center_lon": null,
      "center_lat": null,
      "locationType": 2,
      "category": 3,
      "deprecated": false
    }
  },
  {
    "type": "Feature",
    "geometry": {
      "type": "Point",
      "coordinates": [
        -79.2500049,
        43.0159626
      ]
    },
    "properties": {
      "id": 208170,
      "name": "WD",
      "radius": 200,
      "poiType": 2,
      "chainId": null,
      "address": "803 Niagara St N",
      "city": "Welland",
      "region": "ON",
      "postalCode": "L3C 1M4",
      "country": "CAN",
      "addressLabel": "803 Niagara St N, Welland, ON L3C 1M4, Canada",
      "polygon": null,
      "polygon_json": null,
      "lat": 43.0159626,
      "lon": -79.2500049,
      "center_lon": null,
      "center_lat": null,
      "locationType": 2,
      "category": 3,
      "deprecated": false
    }
  },
  {
    "type": "Feature",
    "geometry": {
      "type": "Point",
      "coordinates": [
        -79.51125,
        43.71574
      ]
    },
    "properties": {
      "id": 208171,
      "name": "1",
      "radius": 200,
      "poiType": 2,
      "chainId": null,
      "address": "10 Suntract Rd",
      "city": "Toronto",
      "region": "ON",
      "postalCode": "M9N 3N9",
      "country": "CAN",
      "addressLabel": "10 Suntract Rd, North York, ON M9N 3N9, Canada",
      "polygon": null,
      "polygon_json": null,
      "lat": 43.71574,
      "lon": -79.51125,
      "center_lon": null,
      "center_lat": null,
      "locationType": 2,
      "category": 3,
      "deprecated": false
    }
  },
  {
    "type": "Feature",
    "geometry": {
      "type": "Point",
      "coordinates": [
        -78.9051495,
        43.8656483
      ]
    },
    "properties": {
      "id": 208172,
      "name": "HY",
      "radius": 200,
      "poiType": 2,
      "chainId": null,
      "address": "1500 Victoria St E",
      "city": "Whitby",
      "region": "ON",
      "postalCode": "L1N 9M3",
      "country": "CAN",
      "addressLabel": "1500 Victoria St E, Whitby, ON L1N 9M3, Canada",
      "polygon": null,
      "polygon_json": null,
      "lat": 43.8656483,
      "lon": -78.9051495,
      "center_lon": null,
      "center_lat": null,
      "locationType": 2,
      "category": 3,
      "deprecated": false
    }
  },
  {
    "type": "Feature",
    "geometry": {
      "type": "Point",
      "coordinates": [
        -97.2072704,
        49.8945665
      ]
    },
    "properties": {
      "id": 208173,
      "name": "WP",
      "radius": 200,
      "poiType": 2,
      "chainId": null,
      "address": "1755 Ellice Ave",
      "city": "Winnipeg",
      "region": "MB",
      "postalCode": "R3H 1A6",
      "country": "CAN",
      "addressLabel": "1755 Ellice Ave, Winnipeg, MB R3H 1A6, Canada",
      "polygon": null,
      "polygon_json": null,
      "lat": 49.8945665,
      "lon": -97.2072704,
      "center_lon": null,
      "center_lat": null,
      "locationType": 2,
      "category": 3,
      "deprecated": false
    }
  },
  {
    "type": "Feature",
    "geometry": {
      "type": "Point",
      "coordinates": [
        -81.47,
        28.47
      ]
    },
    "properties": {
      "id": 208460,
      "name": "test334",
      "radius": 200,
      "poiType": 2,
      "chainId": null,
      "address": "32819",
      "city": "Orlando",
      "region": "Florida",
      "postalCode": null,
      "country": "United States",
      "addressLabel": "Orlando, Florida 32819, United States",
      "polygon": null,
      "polygon_json": null,
      "lat": 28.47,
      "lon": -81.47,
      "center_lon": null,
      "center_lat": null,
      "locationType": 2,
      "category": 1,
      "deprecated": false
    }
  },
  {
    "type": "Feature",
    "geometry": {
      "type": "Point",
      "coordinates": [
        -73.88,
        42.24
      ]
    },
    "properties": {
      "id": 896345,
      "name": "test for log",
      "radius": 100,
      "poiType": 2,
      "chainId": null,
      "address": "12414",
      "city": "Catskill",
      "region": "New York",
      "postalCode": null,
      "country": "United States",
      "addressLabel": "Catskill, New York 12414, United States",
      "polygon": null,
      "polygon_json": null,
      "lat": 42.24,
      "lon": -73.88,
      "center_lon": null,
      "center_lat": null,
      "locationType": 2,
      "category": 2,
      "deprecated": false
    }
  }
]
