[
  {
    "source_poi_id": 143666,
    "source_poi_name": "Store 1",
    "source_lat": 43.6708883,
    "source_lon": -79.389677,
    "target_poi_name": "OG",
    "target_poi_id": 208911,
    "target_lat": 43.67517,
    "target_lon": -79.721,
    "address_city": "Brampton",
    "address_region": "ON",
    "address_postalcode": "L6W 4S2",
    "address_country": "CAN",
    "poi_id": 143666,
    "report_id": 1967,
    "start_date": "2020-05-05T00:00:00.000Z",
    "end_date": "2020-05-06T00:00:00.000Z",
    "xvisit_visits": 1,
    "xvisit_unique_visitors": 1,
    "xvisit_unique_visitors_single_visit": 1,
    "xvisit_unique_visitors_multi_visit": 0,
    "xvisit_repeat_visitors": 0,
    "xvisit_unique_xdevice": 0,
    "xvisit_unique_hh": 0
  },
  {
    "source_poi_id": 143666,
    "source_poi_name": "Store 1",
    "source_lat": 43.6708883,
    "source_lon": -79.389677,
    "target_poi_name": "VN",
    "target_poi_id": 208915,
    "target_lat": 43.82179,
    "target_lon": -79.54345,
    "address_city": "Vaughan",
    "address_region": "ON",
    "address_postalcode": "L4K 5Z6",
    "address_country": "CAN",
    "poi_id": 143666,
    "report_id": 1967,
    "start_date": "2020-05-05T00:00:00.000Z",
    "end_date": "2020-05-06T00:00:00.000Z",
    "xvisit_visits": 5,
    "xvisit_unique_visitors": 3,
    "xvisit_unique_visitors_single_visit": 1,
    "xvisit_unique_visitors_multi_visit": 0,
    "xvisit_repeat_visitors": 0,
    "xvisit_unique_xdevice": 0,
    "xvisit_unique_hh": 0
  },
  {
    "source_poi_id": 143666,
    "source_poi_name": "Store 1",
    "source_lat": 43.6708883,
    "source_lon": -79.389677,
    "target_poi_name": "TS",
    "target_poi_id": 208919,
    "target_lat": 43.614206,
    "target_lon": -79.5593395,
    "address_city": "Toronto",
    "address_region": "ON",
    "address_postalcode": "M9C 5H5",
    "address_country": "CAN",
    "poi_id": 143666,
    "report_id": 1967,
    "start_date": "2020-05-05T00:00:00.000Z",
    "end_date": "2020-05-06T00:00:00.000Z",
    "xvisit_visits": 2,
    "xvisit_unique_visitors": 1,
    "xvisit_unique_visitors_single_visit": 0,
    "xvisit_unique_visitors_multi_visit": 1,
    "xvisit_repeat_visitors": 0,
    "xvisit_unique_xdevice": 0,
    "xvisit_unique_hh": 0
  },
  {
    "source_poi_id": 143666,
    "source_poi_name": "Store 1",
    "source_lat": 43.6708883,
    "source_lon": -79.389677,
    "target_poi_name": "EM",
    "target_poi_id": 208925,
    "target_lat": 43.51558,
    "target_lon": -79.69078,
    "address_city": "Mississauga",
    "address_region": "ON",
    "address_postalcode": "L5L 5X8",
    "address_country": "CAN",
    "poi_id": 143666,
    "report_id": 1967,
    "start_date": "2020-05-05T00:00:00.000Z",
    "end_date": "2020-05-06T00:00:00.000Z",
    "xvisit_visits": 10,
    "xvisit_unique_visitors": 7,
    "xvisit_unique_visitors_single_visit": 1,
    "xvisit_unique_visitors_multi_visit": 0,
    "xvisit_repeat_visitors": 0,
    "xvisit_unique_xdevice": 0,
    "xvisit_unique_hh": 0
  },
  {
    "source_poi_id": 143666,
    "source_poi_name": "Store 1",
    "source_lat": 43.6708883,
    "source_lon": -79.389677,
    "target_poi_name": "RH",
    "target_poi_id": 208936,
    "target_lat": 43.89221,
    "target_lon": -79.44138,
    "address_city": "Richmond Hill",
    "address_region": "ON",
    "address_postalcode": "L4C 3E3",
    "address_country": "CAN",
    "poi_id": 143666,
    "report_id": 1967,
    "start_date": "2020-05-05T00:00:00.000Z",
    "end_date": "2020-05-06T00:00:00.000Z",
    "xvisit_visits": 8,
    "xvisit_unique_visitors": 6,
    "xvisit_unique_visitors_single_visit": 1,
    "xvisit_unique_visitors_multi_visit": 0,
    "xvisit_repeat_visitors": 0,
    "xvisit_unique_xdevice": 0,
    "xvisit_unique_hh": 0
  },
  {
    "source_poi_id": 143666,
    "source_poi_name": "Store 1",
    "source_lat": 43.6708883,
    "source_lon": -79.389677,
    "target_poi_name": "SC",
    "target_poi_id": 208942,
    "target_lat": 43.7992594,
    "target_lon": -79.2386794,
    "address_city": "Toronto",
    "address_region": "ON",
    "address_postalcode": "M1B 2V5",
    "address_country": "CAN",
    "poi_id": 143666,
    "report_id": 1967,
    "start_date": "2020-05-05T00:00:00.000Z",
    "end_date": "2020-05-06T00:00:00.000Z",
    "xvisit_visits": 3,
    "xvisit_unique_visitors": 2,
    "xvisit_unique_visitors_single_visit": 0,
    "xvisit_unique_visitors_multi_visit": 1,
    "xvisit_repeat_visitors": 0,
    "xvisit_unique_xdevice": 0,
    "xvisit_unique_hh": 0
  },
  {
    "source_poi_id": 143666,
    "source_poi_name": "Store 1",
    "source_lat": 43.6708883,
    "source_lon": -79.389677,
    "target_poi_name": "DF",
    "target_poi_id": 208947,
    "target_lat": 43.69005,
    "target_lon": -79.29453,
    "address_city": "Toronto",
    "address_region": "ON",
    "address_postalcode": "M4C 1M1",
    "address_country": "CAN",
    "poi_id": 143666,
    "report_id": 1967,
    "start_date": "2020-05-05T00:00:00.000Z",
    "end_date": "2020-05-06T00:00:00.000Z",
    "xvisit_visits": 19,
    "xvisit_unique_visitors": 14,
    "xvisit_unique_visitors_single_visit": 9,
    "xvisit_unique_visitors_multi_visit": 5,
    "xvisit_repeat_visitors": 0,
    "xvisit_unique_xdevice": 0,
    "xvisit_unique_hh": 0
  },
  {
    "source_poi_id": 143666,
    "source_poi_name": "Store 1",
    "source_lat": 43.6708883,
    "source_lon": -79.389677,
    "target_poi_name": "1",
    "target_poi_id": 208950,
    "target_lat": 43.71574,
    "target_lon": -79.51125,
    "address_city": "Toronto",
    "address_region": "ON",
    "address_postalcode": "M9N 3N9",
    "address_country": "CAN",
    "poi_id": 143666,
    "report_id": 1967,
    "start_date": "2020-05-05T00:00:00.000Z",
    "end_date": "2020-05-06T00:00:00.000Z",
    "xvisit_visits": 15,
    "xvisit_unique_visitors": 10,
    "xvisit_unique_visitors_single_visit": 0,
    "xvisit_unique_visitors_multi_visit": 1,
    "xvisit_repeat_visitors": 0,
    "xvisit_unique_xdevice": 0,
    "xvisit_unique_hh": 0
  }
]
